,business_id,name,address,city,state,postal_code,latitude,longitude,stars,review_count,is_open,categories,attributes.GoodForKids,attributes.RestaurantsReservations,attributes.GoodForMeal,attributes.BusinessParking,attributes.Caters,attributes.NoiseLevel,attributes.RestaurantsTakeOut,attributes.RestaurantsPriceRange2,attributes.OutdoorSeating,attributes.BikeParking,attributes.Ambience,attributes.HasTV,attributes.WiFi,attributes.Alcohol,attributes.RestaurantsAttire,attributes.RestaurantsGoodForGroups,attributes.RestaurantsDelivery,attributes.BusinessAcceptsCreditCards,Chinese,French,Mexican,Italian,Indian,Japanese,American
2,6fPQJq4f_yiq1NHn0fd11Q,La Creperie,3655 Las Vegas Blvd S,Las Vegas,NV,89109,36.11252664,-115.1713514,3.5,535,1,"French, Restaurants, Creperies",1,0,3,1,0,average,1,2,0,0,1,0,no,none,casual,1,0,1,0,1,0,0,0,0,0
3,k-dDZvTeLysoJvjHI-qr9g,Feast Buffet,2411 W Sahara Ave,Las Vegas,NV,89102,36.14211618,-115.1742516,3,287,1,"Buffets, Restaurants",1,0,3,2,0,average,0,1,0,1,1,0,free,beer_and_wine,casual,1,0,1,0,0,0,0,0,0,0
5,dusNIzdCaH6EoLl2hRy6cQ,Chipotle Mexican Grill,3475 Las Vegas Blvd S,Las Vegas,NV,89109,36.120095,-115.171769,3.5,115,1,"Fast Food, Mexican, Restaurants",1,0,2,1,0,loud,1,1,1,0,1,0,no,beer_and_wine,casual,1,0,1,0,0,1,0,0,0,0
6,hgQOESYp7CF4LnNI90XEiw,800 Degrees,2535 Las Vegas Blvd S,Las Vegas,NV,89109,36.1423694,-115.156034,3.5,296,1,"Pizza, Salad, Restaurants, Italian",1,0,3,2,0,average,1,2,0,0,1,0,free,beer_and_wine,casual,1,0,1,0,0,0,1,0,0,0
7,F06m2yQSPHIrb1IT7heYeQ,Rainbow Kitchen,7537 S Rainbow Blvd,Las Vegas,NV,89139,36.05144996,-115.2441147,4,101,1,"Chinese, Seafood, Cantonese, Noodles, Restaurants",1,1,3,1,1,average,1,2,0,1,1,1,free,beer_and_wine,casual,1,0,1,1,0,0,0,0,0,0
8,SAfuIUZMXrOnb3LWyvYjDA,Jun's Korean Restaurant,"8826 S Eastern Ave, Ste 113",Las Vegas,NV,89123,36.02929536,-115.1158845,3.5,292,1,"Korean, Restaurants",1,0,2,1,1,average,1,2,0,1,1,1,no,none,casual,1,0,1,0,0,0,0,0,0,0
9,aidcfUzZLOjWgwlxfv3UlA,Tony Big's Pizza N Pasta,7150 S Durango Dr,Las Vegas,NV,89113,36.05835714,-115.2784112,3,106,1,"Italian, Pizza, Restaurants",0,1,0,1,1,quiet,1,2,0,1,0,1,free,full_bar,casual,1,1,1,0,0,0,1,0,0,0
10,BIbjBxoiJLS8CnNsSP64TQ,360 Gourmet Burrito,5757 Wayne Newton Blvd,Las Vegas,NV,89119,36.0828537,-115.1512027,2,168,1,"Restaurants, Mexican",1,0,1,1,0,loud,1,2,0,0,0,0,no,none,casual,0,0,1,0,0,1,0,0,0,0
11,GMrwDXRlAZU2zj5nH6l4vQ,Pho Thanh Huong,"1131 E Tropicana Ave, Ste D",Las Vegas,NV,89119,36.1001831,-115.138668,4,481,1,"Vietnamese, American (New), Restaurants, Sandwiches",1,1,2,1,1,average,1,1,0,0,1,1,free,none,casual,1,0,1,0,0,0,0,0,0,1
12,qVO3l9Q0-KVQE7W9JL9ePw,Greenland Supermarket,6850 Spring Mountain Rd,Las Vegas,NV,89146,36.127061,-115.241457,4,334,1,"Ethical Grocery, Grocery, Shopping, Food Stands, Food, Korean, Restaurants",1,0,2,1,0,average,1,2,0,1,1,0,no,beer_and_wine,casual,1,0,1,0,0,0,0,0,0,0
13,iX2c4IzH_L5F6FM5GD3SUQ,Tasty Crepes,4845 S Fort Apache Rd,Las Vegas,NV,89147,36.10168999,-115.2981503,4.5,260,1,"Restaurants, Desserts, Food, Juice Bars & Smoothies, Creperies, Ice Cream & Frozen Yogurt",1,0,3,1,1,quiet,1,1,0,1,1,1,free,none,casual,1,0,1,0,0,0,0,0,0,0
14,ujHiaprwCQ5ewziu0Vi9rw,The Buffet at Bellagio,3600 S Las Vegas Blvd,Las Vegas,NV,89109,36.11322,-115.17689,3.5,4227,1,"American (New), Buffets, Restaurants",1,0,3,1,0,average,0,3,0,0,1,0,free,full_bar,casual,1,0,1,0,0,0,0,0,0,1
15,DVfCbJhJUDWRlUfrKzaKOA,Sam Woo BBQ Restaurant,"4215 Spring Mountain Rd, Ste B101",Las Vegas,NV,89102,36.1253808,-115.1959803,2,550,1,"Restaurants, Noodles, Barbeque, Chinese",1,0,2,1,0,average,1,2,0,0,1,0,no,none,casual,1,0,0,1,0,0,0,0,0,0
16,XDYCIRENiT2doRZgwNJ3SA,Pepe's Tacos,"4190 S Rainbow Blvd, Ste 1",Las Vegas,NV,89103,36.11254551,-115.2426152,2.5,218,1,"Food, Restaurants, Mexican",1,0,2,1,0,average,1,1,0,1,1,1,no,none,casual,1,0,1,0,0,1,0,0,0,0
17,5yZ1XmDcOEsElDeb9PlPDQ,Yagyu Ramen,"4355 W Spring Mountain Rd, Ste 107",Las Vegas,NV,89102,36.1259293,-115.1976305,4,150,0,"Restaurants, Japanese, Ramen",1,1,2,1,1,quiet,1,1,0,1,1,1,free,beer_and_wine,casual,1,0,1,0,0,0,0,0,1,0
18,_j2EtQtgLuXGRBfbM5YwZA,Noodle Asia,3355 Las Vegas Blvd S,Las Vegas,NV,89109,36.122689,-115.170163,3.5,1090,1,"Restaurants, Asian Fusion, Chinese, Dim Sum, Noodles",1,0,3,1,0,average,1,2,0,0,1,0,free,beer_and_wine,casual,1,0,1,1,0,0,0,0,0,0
19,5ma1OUQWy_Ds80xUiP7JPQ,Fuku Burger Chinatown,3429 S Jones Blvd,Las Vegas,NV,89146,36.126649,-115.225307,4,490,1,"Burgers, Fast Food, Restaurants",1,0,3,0,1,average,1,2,0,0,3,1,free,beer_and_wine,casual,1,0,1,0,0,0,0,0,0,0
20,tMYYSWyTppDcF070Hmy-kQ,Blue Ribbon Fried Chicken - Downtown Summerlin,"1770 Festival Plaza Dr, Suite 200, Downtown Summerlin",Las Vegas,NV,89135,36.15179146,-115.3327068,3.5,445,0,"Restaurants, Fast Food, American (New), Chicken Wings, Chicken Shop",1,0,2,1,1,average,1,2,0,1,1,1,no,beer_and_wine,casual,1,0,1,0,0,0,0,0,0,1
21,S5FTckOpSK0_Ma4c18ZEgg,Wo Fat,"3700 E Desert Inn Rd, Ste 1",Las Vegas,NV,89121,36.1299291,-115.093628,3.5,165,1,"Chinese, Restaurants",1,1,2,1,1,average,1,1,0,1,1,0,no,beer_and_wine,casual,1,0,1,1,0,0,0,0,0,0
22,0gTTGuA6uEmMhLhfJi0hqA,Sammy's Woodfired Pizza and Grill,"9516 W Flamingo Rd, Ste 100",Las Vegas,NV,89147,36.1158229,-115.2996399,3.5,169,1,"Pizza, Salad, Gluten-Free, American (New), Restaurants",1,1,2,1,1,average,1,2,1,1,1,1,no,full_bar,casual,1,0,1,0,0,0,0,0,0,1
23,Vs7gc9EE3k9wARuUcN9piA,Pan Asian,"2980 S Durango Dr, Ste 101",Las Vegas,NV,89117,36.1349835,-115.2784336,4.5,669,1,"Thai, Japanese, Chinese, Restaurants",1,1,2,1,1,average,1,2,0,1,1,1,no,none,casual,1,0,1,1,0,0,0,0,1,0
24,hl6s4hGsJDcRhHIWrSM-UA,Azuza Hookah Lounge & Cafe,4480 Paradise Rd,Las Vegas,NV,89169,36.108898,-115.151261,4.5,273,1,"Beer, Wine & Spirits, Bars, Ethnic Food, Cafes, Specialty Food, Restaurants, Cocktail Bars, Arts & Entertainment, Hookah Bars, Tea Rooms, Food, Nightlife, Mediterranean, Coffee & Tea, Music Venues",0,1,1,1,1,average,1,2,1,1,2,1,free,full_bar,casual,1,1,1,0,0,0,0,0,0,0
25,hCsJv234v62MgdsUU1j8dQ,Big Sur Oyster Bar,9777 S Las Vegas Blvd,Las Vegas,NV,89183,36.011588,-115.175342,3.5,254,1,"Restaurants, Seafood",1,0,2,2,0,average,1,2,0,1,1,0,no,full_bar,casual,1,0,1,0,0,0,0,0,0,0
27,Ia1JlEo7UUyZtmqRe1K1Pw,Makers & Finders Coffee,"2120 Festival Plaza Dr, Unit 140",Las Vegas,NV,89135,36.1486981,-115.3331133,3.5,243,1,"Food, Coffee & Tea, Breakfast & Brunch, Latin American, Restaurants",1,0,5,1,1,loud,1,2,1,1,1,0,free,beer_and_wine,casual,1,0,1,0,0,0,0,0,0,1
28,VkECNTcZZ1mdN-VJltJcWA,King & I,1107 E Tropicana Ave,Las Vegas,NV,89119,36.1001658,-115.1389824,3.5,182,1,"Thai, Salad, Soup, Restaurants",1,1,2,1,1,quiet,1,2,0,0,2,1,free,beer_and_wine,casual,1,1,1,0,0,0,0,0,0,0
29,WLblFINiPI18_o1OdDsnVg,Cafe Rio,4680 S Maryland Pkwy,Las Vegas,NV,89119,36.1043905,-115.1367126,3,213,1,"Mexican, Restaurants",1,0,2,1,1,average,1,1,1,1,1,0,no,none,casual,1,0,1,0,0,1,0,0,0,0
30,aNe8ofTYrealxqv7VtFTuw,Sierra Gold,6515 S Jones Blvd,Las Vegas,NV,89118,36.0702792,-115.2249525,3.5,231,1,"Pubs, Sports Bars, Pizza, Nightlife, Food, Breweries, American (New), Bars, Restaurants",0,0,2,1,0,average,1,2,0,1,1,1,free,full_bar,casual,1,0,1,0,0,0,0,0,0,1
31,WRQ-9LluyivReFiQZFUujw,Buldogis Gourmet Hot Dogs,"2291 S Fort Apache Rd, Ste 102",Las Vegas,NV,89117,36.1470835,-115.2982993,4.5,865,1,"Korean, Restaurants, Asian Fusion, Chicken Wings, Hot Dogs",1,0,2,1,1,average,1,1,1,1,1,1,free,none,casual,1,0,1,0,0,0,0,0,0,0
32,f_eiOrEcMnkHB7GvQVOHkQ,Terrace Pointe Cafe,3131 Las Vegas Blvd S,Las Vegas,NV,89109,36.126212,-115.164514,4,744,1,"American (Traditional), American (New), Restaurants",1,1,3,1,0,average,1,2,1,0,1,0,free,full_bar,casual,1,0,1,0,0,0,0,0,0,1
33,74C1z6cqEdvJVgETTcEodw,Portofino by Chef Michael LaPlaca,3400 Las Vegas Blvd S,Las Vegas,NV,89109,36.121305,-115.175582,4,287,0,"Arts & Entertainment, Italian, Hotels & Travel, Hotels, Restaurants, Event Planning & Services, Bars, Casinos, Wine Bars, Lounges, Nightlife",0,1,1,1,0,average,1,3,0,0,2,1,free,full_bar,dressy,1,0,1,0,0,0,1,0,0,0
34,c5TOGBUCCUUNBPM7h_KbmQ,Fausto's Mexican Grill,"7835 S Rainbow Blvd, Ste 20",Las Vegas,NV,89139,36.04601894,-115.2440145,4,158,1,"Chicken Wings, Mexican, Breakfast & Brunch, Restaurants",1,0,2,1,1,quiet,1,1,0,0,1,0,no,none,casual,1,0,1,0,0,1,0,0,0,0
35,atVh8viqTj-sqDJ35tAYVg,Beach Cafe,7750 S Jones Blvd,Las Vegas,NV,89139,36.0484864,-115.2243463,3.5,294,1,"Restaurants, Burgers, Diners, Breakfast & Brunch",1,0,3,1,1,average,1,1,1,1,1,1,free,none,casual,1,1,1,0,0,0,0,0,0,0
36,gc_GGat7TgNCmrgc4nVOgw,Crush,3799 Las Vegas Blvd S,Las Vegas,NV,89109,36.10289615,-115.1701994,3.5,256,1,"Nightlife, Tapas Bars, Bars, Lounges, Restaurants, American (New)",0,1,1,2,0,average,0,3,0,0,1,1,no,full_bar,casual,1,0,1,0,0,0,0,0,0,1
38,7wMCJ9NqL9eBEX4WdJWuIA,Outback Steakhouse,"3785 Las Vegas Blvd S, Fl 4",Las Vegas,NV,89109,36.1035296,-115.1723424,3.5,130,1,"Steakhouses, Restaurants",1,1,1,0,0,average,1,2,0,0,1,1,free,full_bar,casual,1,0,1,0,0,0,0,0,0,0
39,xDvl_i1g1HCJ4EmIRmwfqg,Denny's,450 Fremont St,Las Vegas,NV,89101,36.1699356,-115.1414301,3,170,1,"Diners, Restaurants, American (Traditional), Breakfast & Brunch, Sandwiches",1,0,3,1,0,average,1,2,1,1,1,1,free,full_bar,casual,1,0,1,0,0,0,0,0,0,1
40,5qG4UHurI1yEozwn25WAFw,BLACKOUT Dining in the Dark,"3871 S Valley View Blvd, Ste 8",Las Vegas,NV,89103,36.119787,-115.190605,4,300,1,"Diners, Venues & Event Spaces, Event Planning & Services, Arts & Entertainment, Vegetarian, American (New), Mediterranean, Nightlife, Restaurants",0,1,1,1,0,average,0,3,0,0,1,0,no,full_bar,casual,1,0,1,0,0,0,0,0,0,1
41,rdE9gg0WB7Z8kRytIMSapg,Lazy Dog Restaurant & Bar,6509 Las Vegas Blvd S,Las Vegas,NV,89119,36.07014648,-115.1738563,4,815,1,"Comfort Food, American (New), Restaurants, Bars, Breakfast & Brunch, Wine Bars, Tapas/Small Plates, Burgers, Nightlife, Cocktail Bars, Beer, Wine & Spirits, Food, Beer Bar",1,0,5,1,1,average,1,2,1,1,2,1,free,full_bar,casual,1,1,1,0,0,0,0,0,0,1
42,w4yq1IRk0DHQE995giqjGg,Olive Garden Italian Restaurant,1545 E Flamingo Rd,Las Vegas,NV,89119,36.11404716,-115.1322573,3.5,231,1,"Wine Bars, Italian, Salad, Nightlife, Bars, Restaurants",1,1,3,1,1,average,1,2,0,1,1,0,no,full_bar,casual,1,0,1,0,0,0,1,0,0,0
45,qsJkjQoM3Hdg6Gtqp2S9_w,Archi's Thai Cafe,9350 W Sahara Ave,Las Vegas,NV,89117,36.14715261,-115.2999764,3.5,562,1,"Thai, Restaurants, Food",1,1,2,1,0,average,1,2,0,1,1,0,no,beer_and_wine,casual,1,0,1,0,0,0,0,0,0,0
46,XXW_OFaYQkkGOGniujZFHg,The Peppermill Restaurant & Fireside Lounge,2985 Las Vegas Blvd S,Las Vegas,NV,89109,36.13366733,-115.1630948,4,3260,1,"Nightlife, Lounges, Restaurants, Bars, American (Traditional), Breakfast & Brunch",1,0,4,1,0,average,1,2,0,1,1,1,free,full_bar,casual,1,0,1,0,0,0,0,0,0,1
47,VUtazCTIc0aoOrQprP_s-Q,Toby Keith's I Love This Bar & Grill,3475 Las Vegas Blvd S,Las Vegas,NV,89109,36.11899784,-115.1703831,3,641,1,"Restaurants, Nightlife, Bars, Music Venues, American (Traditional), Arts & Entertainment",0,1,3,1,0,loud,1,2,0,1,1,1,no,full_bar,casual,1,0,1,0,0,0,0,0,0,1
48,gHoP4eJimaMltfUlp6EP4Q,Sammy's Woodfired Pizza and Grill,6500 W Sahara Ave,Las Vegas,NV,89146,36.14446905,-115.236672,4,343,1,"Restaurants, Salad, Pizza, Gluten-Free",1,1,2,1,1,average,1,2,1,1,1,0,no,full_bar,casual,1,0,1,0,0,0,0,0,0,0
49,eS76100l3h7Ollb5s3_M4A,Madhouse Coffee,8899 S Eastern Ave,Las Vegas,NV,89123,36.0280976,-115.1189137,4,271,1,"Bagels, Restaurants, Juice Bars & Smoothies, Breakfast & Brunch, Food, Coffee & Tea, Bakeries",1,1,4,2,1,average,1,1,1,1,3,0,free,none,casual,1,1,1,0,0,0,0,0,0,0
50,0G1y7uV7w1D2uziS4Lt_Dw,Chapalas Mexican Restaurants,3331 E Tropicana Ave,Las Vegas,NV,89121,36.0996135,-115.1039133,3.5,191,1,"Restaurants, Mexican",1,1,2,1,1,average,1,2,1,1,1,1,free,full_bar,casual,1,1,1,0,0,1,0,0,0,0
51,ZPwx7ktiVluGFVg0L05n5A,Rincon De Buenos Aires,5300 Spring Mountain Rd,Las Vegas,NV,89146,36.126315,-115.214259,4.5,297,1,"Argentine, Delis, Specialty Food, Ethnic Food, Italian, Restaurants, Food, Latin American, Grocery, Steakhouses",1,1,2,1,1,average,1,2,1,1,1,1,no,beer_and_wine,casual,1,0,1,0,0,0,1,0,0,1
52,Suy2V5n_w8uzsXTdDdtCnA,Boca Do Brasil,4825 S Fort Apache Rd,Las Vegas,NV,89147,36.1013505,-115.2983204,4,121,1,"Food, Pizza, Sandwiches, Restaurants, Grocery, Brazilian",1,1,2,1,1,average,1,2,0,1,1,1,no,none,casual,1,1,1,0,0,0,0,0,0,0
53,a0v7Si0DK4cIko7AQY4YXg,Egg Works,6960 S Rainbow Blvd,Las Vegas,NV,89118,36.06219401,-115.2418562,4.5,999,1,"Restaurants, Burgers, Breakfast & Brunch, American (Traditional), Pizza",1,0,3,1,1,average,1,2,1,1,1,1,free,full_bar,casual,1,0,1,0,0,0,0,0,0,1
54,uuGL8diLlHfeUeFuod3F-w,Tom's Urban,3790 Las Vegas Blvd S,Las Vegas,NV,89109,36.102928,-115.173847,3.5,1671,1,"Gastropubs, Nightlife, Restaurants, American (New), Bars, Sports Bars",1,1,5,2,0,average,1,2,1,1,3,1,free,full_bar,casual,1,0,1,0,0,0,0,0,0,1
55,Kbbm6Vd5UdbP10dwjBghRw,In-N-Out Burger,3882 Blue Diamond Rd,Las Vegas,NV,89139,36.04062762,-115.1912562,4,311,1,"Burgers, Fast Food, Restaurants",1,0,3,1,0,average,1,1,1,1,1,0,no,none,casual,1,0,1,0,0,0,0,0,0,0
56,gOOfBSBZlffCkQ7dr7cpdw,Chica,"3355 South Las Vegas Blvd, Ste 106",Las Vegas,NV,89109,36.1226902,-115.1701939,4.5,598,1,"Latin American, Mexican, Wine Bars, Bars, Restaurants, Nightlife",0,1,3,2,0,average,1,2,0,0,1,1,free,full_bar,casual,1,0,1,0,0,1,0,0,0,1
58,eJPckkV1k7gn0V2awA1pzA,Soho Sushi Burrito,"6040 W Badura Ave, Ste 150",Las Vegas,NV,89118,36.06273651,-115.2236786,4.5,225,1,"Asian Fusion, Fast Food, Restaurants, Mexican, Food, Sushi Bars, American (New), Poke",1,0,2,2,1,average,1,1,0,1,1,0,no,none,casual,1,1,1,0,0,1,0,0,0,1
59,LYWbyu1EQM2o5hwHG5_Ldg,RM Seafood,3950 S Las Vegas Blvd,Las Vegas,NV,89119,36.093063,-115.17631,3.5,928,0,"Restaurants, Sushi Bars, Seafood",0,1,1,1,0,average,1,3,0,0,0,1,no,full_bar,casual,1,0,1,0,0,0,0,0,0,0
60,AUl6myFhTAbEqt0GMdKHiw,Chipotle Mexican Grill,"7340 Arroyo Crossing Pkyw, Ste 100",Las Vegas,NV,89118,36.0636775,-115.2520419,3,163,1,"Restaurants, Fast Food, Mexican",1,0,2,1,1,average,1,1,1,1,1,0,no,beer_and_wine,casual,1,0,1,0,0,1,0,0,0,0
61,o69XnnmtOaj6a2sjOTsGeg,Capriotti's Sandwich Shop,"3830 E Flamingo Rd, Ste E5",Las Vegas,NV,89121,36.11703371,-115.0904043,3.5,129,1,"Restaurants, Delis, Sandwiches",1,0,1,1,1,average,1,1,0,1,1,1,free,none,casual,1,1,1,0,0,0,0,0,0,0
62,6QUuDlLjNDQWFCbJ9--jsQ,Fú Asian Kitchen,4455 Paradise Rd,Las Vegas,NV,89169,36.109157,-115.154976,4,189,1,"Asian Fusion, Food, Vegetarian, Cantonese, Chinese, Restaurants",1,1,1,1,0,average,1,2,0,0,1,0,free,full_bar,casual,1,0,1,1,0,0,0,0,0,0
63,9ae7asMUB-Fty3tw6m18qQ,Pho Da Nang Vietnamese Kitchen,3700 W Flamingo Rd,Las Vegas,NV,89103,36.117237,-115.189231,3,111,1,"Vietnamese, Restaurants",1,0,2,1,0,loud,1,2,0,0,1,1,free,beer_and_wine,casual,1,0,1,0,0,0,0,0,0,0
65,zuwba6QEBIDZT0tJZmNhdQ,Kobe Sushi Bar,9340 W Flamingo Rd,Las Vegas,NV,89147,36.1160271,-115.2944197,3.5,291,1,"Tapas Bars, Sushi Bars, Japanese, Restaurants",1,1,2,1,1,average,1,2,0,1,1,1,free,beer_and_wine,casual,1,0,1,0,0,0,0,0,1,0
66,qG_WEgPa8MBo1dPUOkTMlw,In-N-Out Burger,9610 W Tropicana Ave,Las Vegas,NV,89147,36.10064631,-115.3020415,4.5,372,1,"Burgers, Fast Food, Restaurants",1,0,3,1,0,average,1,1,1,1,1,0,no,none,casual,1,0,1,0,0,0,0,0,0,0
67,lVfZ2AaYRYHCFenUMQna8g,Super B Burrito,8899 S Eastern Ave,Las Vegas,NV,89123,36.0280976,-115.1189235,4,166,0,"Mexican, Restaurants",1,0,2,1,1,average,1,1,0,1,1,0,no,none,casual,1,0,1,0,0,1,0,0,0,0
68,mswelTP1cQiuAps2fSGuBw,Farmer Boys,5955 S Eastern Ave,Las Vegas,NV,89119,36.081352,-115.1192262,3,180,1,"Sandwiches, Restaurants, Mexican, American (Traditional), Burgers, Salad, Breakfast & Brunch, Diners",1,0,4,1,0,average,1,1,1,1,1,0,free,none,casual,1,0,1,0,0,1,0,0,0,1
69,L7SKlQ4hH12eIqmabXzE0Q,DJT,2000 Fashion Show Dr,Las Vegas,NV,89109,36.129522,-115.172779,3,139,1,"Restaurants, American (New)",0,1,1,1,0,average,0,3,0,0,1,1,no,full_bar,casual,1,0,1,0,0,0,0,0,0,1
70,8KEB1lcjKlIVSd6uA8JB9w,Cafe Rio,7040 S Durango Dr,Las Vegas,NV,89113,36.060258,-115.27869,2.5,227,1,"Mexican, Cafes, Restaurants",1,0,2,0,1,average,1,1,1,1,1,0,no,none,casual,1,0,1,0,0,1,0,0,0,0
71,FvVSy2r7_zDEhZWqLgjXNQ,The Bagel Cafe,301 N Buffalo Dr,Las Vegas,NV,89145,36.1761018,-115.2602821,4,1005,1,"Breakfast & Brunch, Bagels, Delis, Coffee & Tea, Comfort Food, Cafes, Bakeries, Food, Restaurants",1,0,3,1,1,average,1,2,0,1,1,1,free,beer_and_wine,casual,1,1,1,0,0,0,0,0,0,0
72,N-L7ISdndWsIWdK0fn29wg,Curry Pot,3355 S Las Vegas Blvd,Las Vegas,NV,89109,36.1226902,-115.1701939,3.5,144,1,"Restaurants, Indian, Vegetarian, Fast Food",1,0,2,0,0,average,1,2,0,1,2,0,no,none,casual,1,0,1,0,0,0,0,1,0,0
73,YBE7FO11s32f6BEpTAJ5Rw,The Mixx Grill and Lounge,"750 S Rampart Blvd, Ste 16",Las Vegas,NV,89145,36.1643423,-115.2897075,3.5,308,0,"American (New), American (Traditional), Arts & Entertainment, Lounges, Restaurants, Tapas/Small Plates, Breakfast & Brunch, Tapas Bars, Bars, Nightlife, Cocktail Bars, Music Venues",1,1,3,3,1,average,1,2,1,1,2,1,free,full_bar,casual,1,0,1,0,0,0,0,0,0,1
74,OVTZNSkSfbl3gVB9XQIJfw,Cravings Buffet,3400 Las Vegas Blvd S,Las Vegas,NV,89109,36.121237,-115.174105,3,1367,1,"American (New), Buffets, Restaurants, American (Traditional)",1,0,2,1,0,average,1,2,0,1,1,0,no,full_bar,casual,1,0,1,0,0,0,0,0,0,1
75,Os1n1_idfw9vv9kwULGJnQ,Island Style Restaurant,"3909 W Sahara Ave, Ste 1",Las Vegas,NV,89102,36.14403504,-115.1933892,4.5,803,1,"Restaurants, Japanese, Hawaiian, Korean, Asian Fusion",1,1,2,1,1,average,1,2,0,1,1,1,free,none,casual,1,0,1,0,0,0,0,0,1,0
76,rvnTFEq7R2ZHg0_CYbBNFw,Village Seafood Buffet,"Rio All-Suite Hotel & Casino, 3700 W. Flamingo Road",Las Vegas,NV,89103,36.118117,-115.187298,3.5,821,0,"Restaurants, Seafood, Buffets",1,1,1,1,0,average,0,3,0,1,1,1,free,full_bar,casual,1,0,1,0,0,0,0,0,0,0
77,2PS9kBbuJcmBhcNp-D62uA,Mom's Teriyaki,"2555 S Jones Blvd, Ste 3",Las Vegas,NV,89146,36.1433289,-115.2254093,4.5,166,1,"Japanese, Restaurants, Hawaiian, Asian Fusion",1,0,3,1,1,average,1,1,0,0,1,0,free,none,casual,1,1,1,0,0,0,0,0,1,0
78,Gyrez6K8f1AyR7dzW9fvAw,Casanova,"3377 S Las Vegas Blvd, Ste 2170",Las Vegas,NV,89109,36.12157923,-115.1686639,4,495,1,"Restaurants, Tapas Bars, Mediterranean, Italian",1,1,1,2,0,average,1,2,0,0,1,1,free,full_bar,casual,1,0,1,0,0,0,1,0,0,0
79,78hGCrQ6wLA2yh8zMywnmw,Wahoo's Fish Tacos,1000 S Rampart,Las Vegas,NV,89145,36.16068335,-115.2897787,3.5,303,1,"Gluten-Free, Seafood, Restaurants, Mexican",1,0,2,1,1,average,1,1,1,1,1,1,free,full_bar,casual,1,1,1,0,0,1,0,0,0,0
80,IMLrj2klosTFvPRLv56cng,Honey Salt,1031 S Rampart Blvd,Las Vegas,NV,89145,36.160577,-115.292996,4,1517,1,"Cafes, American (New), Restaurants",1,1,3,1,1,average,1,2,1,1,1,1,free,full_bar,casual,1,0,1,0,0,0,0,0,0,1
81,77h11eWv6HKJAgojLx8G4w,Eggslut,3708 Las Vegas Blvd S,Las Vegas,NV,89109,36.10999913,-115.1742914,4,1826,1,"Sandwiches, Restaurants, Breakfast & Brunch",1,0,3,1,0,average,1,2,0,0,1,0,no,none,casual,0,0,1,0,0,0,0,0,0,0
82,pH0BLkL4cbxKzu471VZnuA,SUSHISAMBA - Las Vegas,3327 Las Vegas Blvd S,Las Vegas,NV,89109,36.1245819,-115.1675529,4,2355,1,"Bars, Dim Sum, Japanese, Asian Fusion, Restaurants, Chinese, Breakfast & Brunch, Nightlife",0,1,1,1,0,average,1,3,0,0,1,1,no,full_bar,casual,1,0,1,1,0,0,0,0,1,0
83,vzrcPqSdRY41GoO5DR5pYA,Landry's Seafood House,2610 W Sahara Ave,Las Vegas,NV,89102,36.144997,-115.175625,3,263,0,"Restaurants, Seafood, Steakhouses, American (Traditional)",1,1,1,1,1,average,1,2,1,1,0,1,free,full_bar,casual,1,0,1,0,0,0,0,0,0,1
84,7EZ4Eu7YJ1ltRCC5jXFJrQ,Corner Market Buffet,3300 S Las Vegas Blvd,Las Vegas,NV,89109,36.124829,-115.171991,2.5,760,1,"Event Planning & Services, Buffets, Asian Fusion, Restaurants, Hotels & Travel, American (Traditional), Sushi Bars, Hotels, Breakfast & Brunch",1,0,0,1,0,average,0,2,0,0,1,0,no,full_bar,casual,1,0,1,0,0,0,0,0,0,1
85,-9YyInW1wapzdNZrhQJ9dg,Fresh Buffet,3000 Paradise Rd,Las Vegas,NV,89109,36.1362575,-115.1512526,2.5,193,1,"Buffets, Restaurants",1,0,3,3,0,average,1,2,0,0,1,1,free,beer_and_wine,casual,1,0,1,0,0,0,0,0,0,0
86,i3mZIwNi1EiJ7-1A8amoyw,Amena Bakery & Deli,"2101 S Decatur Blvd, Ste 10",Las Vegas,NV,89102,36.148922,-115.209227,4.5,317,1,"Middle Eastern, Restaurants, Mediterranean, Bakeries, Food, Greek",1,0,2,1,1,quiet,1,2,0,1,1,0,no,none,casual,1,0,1,0,0,0,0,0,0,0
87,LPMZ9N1sAjs2nDx7DmiZ2w,Palermo's Pizza,"1370 E Flamingo Rd, Ste F",Las Vegas,NV,89119,36.1154564,-115.1338935,3,145,1,"Restaurants, Pizza, Food, Food Delivery Services",1,0,2,1,1,quiet,1,1,1,1,1,1,free,none,casual,1,1,1,0,0,0,0,0,0,0
88,ypfFfR3-PbtoslIhohNstw,Lee's Korean BBQ,"6820 Spring Mountain Rd, Ste 110",Las Vegas,NV,89146,36.1267945,-115.2410377,3.5,483,1,"Local Services, Korean, Restaurants",1,1,3,1,1,average,1,2,0,1,1,1,free,beer_and_wine,casual,1,0,1,0,0,0,0,0,0,0
89,#NAME?,Rani's World Foods,4505 W Sahara Ave,Las Vegas,NV,89102,36.1435825,-115.2014156,4,190,1,"Restaurants, Food, Ethnic Food, Indian, Specialty Food, Vegetarian, Grocery",1,0,2,1,1,average,1,1,0,1,1,1,free,none,casual,1,0,1,0,0,0,0,1,0,0
91,VMXl3Dm1Nwvgwo1PVYTXbg,Gold Spike,217 Las Vegas Blvd N,Las Vegas,NV,89101,36.1713078,-115.1402675,4,684,1,"Bars, Nightlife, Lounges, Restaurants, Dance Clubs, Cafes",0,0,1,1,0,average,0,2,1,1,2,1,free,full_bar,casual,1,0,1,0,0,0,0,0,0,0
92,6xgcHeLad-VaoTIQewK84A,N9NE Steakhouse,4321 W Flamingo Rd,Las Vegas,NV,89103,36.11475,-115.1941,4,838,0,"Seafood, Steakhouses, American (Traditional), Restaurants",0,1,1,2,0,average,0,4,0,0,1,1,no,full_bar,dressy,1,0,1,0,0,0,0,0,0,1
93,5gv6AqHXfi3gJV4fb432Vw,Little Italy Pizza,"3711 S Valley View Blvd, Ste H",Las Vegas,NV,89103,36.122364,-115.1908149,3.5,132,1,"Pizza, Restaurants, Halal, Italian",1,0,2,0,0,average,1,1,0,1,1,0,no,none,casual,1,1,1,0,0,0,1,0,0,0
94,N6MzDoao6s68nAIW8vS9dQ,Biaggio's Pizzeria,"4235 S Fort Apache Rd, Ste 160",Las Vegas,NV,89147,36.1122018,-115.2980657,4.5,695,1,"Pasta Shops, Pizza, Specialty Food, Italian, Food, Restaurants",1,1,2,1,1,average,1,2,0,1,1,1,free,none,casual,1,1,1,0,0,0,1,0,0,0
95,SVGApDPNdpFlEjwRQThCxA,Juan's Flaming Fajitas & Cantina,"9640 W Tropicana, Ste 101",Las Vegas,NV,89147,36.100509,-115.302689,4.5,1624,1,"Nightlife, Restaurants, Bars, Mexican",1,0,2,1,1,average,1,2,1,1,1,1,free,full_bar,casual,1,0,1,0,0,1,0,0,0,0
96,r8Jr-7YfkhJL2nxk9lxUNg,Frank & Fina's Cocina,4175 S Grand Canyon Dr,Las Vegas,NV,89147,36.113498,-115.307372,4,396,1,"Restaurants, Mexican",1,1,2,1,1,average,1,2,0,1,1,0,no,full_bar,casual,1,0,1,0,0,1,0,0,0,0
97,M51gw2cz_vXarNBLbKkOxQ,The Cracked Egg,6435 S Rainbow Blvd,Las Vegas,NV,89118,36.07204557,-115.2435014,4,546,1,"Restaurants, Breakfast & Brunch",1,0,3,1,0,average,1,2,1,1,1,0,no,none,casual,1,0,1,0,0,0,0,0,0,0
98,dm6sO_Y8JdKTE1ZM955yug,Chada Thai & Wine,"3400 S Jones Blvd, Ste 11A",Las Vegas,NV,89146,36.12737486,-115.224171,4.5,464,0,"Wine Bars, Restaurants, Bars, Thai, Nightlife",0,1,2,1,0,average,1,2,0,1,1,0,no,beer_and_wine,casual,1,0,1,0,0,0,0,0,0,0
99,z2CVPfaG8C_rydUZCcsqbw,Ramen Hashi,"5808 Spring Mountain Rd, Ste 109",Las Vegas,NV,89146,36.1260798,-115.2216139,4.5,332,1,"Restaurants, Ramen, Japanese",1,0,2,1,0,average,1,1,0,0,1,0,no,beer_and_wine,casual,1,0,1,0,0,0,0,0,1,0
100,lv5Bnqlt93NnvNJ2oNcQ8Q,Los Cucos Mexican Cafe,7315 Arroyo Crossing Pkwy,Las Vegas,NV,89113,36.0618411,-115.2519912,4,402,1,"Caterers, Tex-Mex, Restaurants, Nightlife, Mexican, Event Planning & Services, Bars",1,1,2,1,1,average,1,2,0,1,1,1,free,full_bar,casual,1,0,1,0,0,1,0,0,0,0
101,yNVcnSaMSrTmjJBMrHTy9w,Battista's Hole In the Wall,4041 Linq Ln,Las Vegas,NV,89109,36.115189,-115.168244,3.5,1183,1,"Bars, Restaurants, Nightlife, Italian, Wine Bars",1,1,1,1,0,average,0,2,0,1,1,1,no,full_bar,casual,1,0,1,0,0,0,1,0,0,0
102,glkEaoxbewiSMBiXs945JA,800 Degrees,3770 Las Vegas Blvd S,Las Vegas,NV,89109,36.1050207,-115.1735947,3.5,465,0,"Food, Restaurants, Pizza",1,0,2,0,0,average,1,2,1,0,1,1,free,beer_and_wine,casual,1,0,1,0,0,0,0,0,0,0
103,H8qlBw1YaxMsItfz25-AyA,John Cutter,11770 W Charleston Blvd,Las Vegas,NV,89135,36.159014,-115.351342,3,317,1,"Nightlife, American (New), Burgers, Bars, Restaurants, Chicken Wings",0,0,2,1,0,average,1,2,1,1,1,1,free,full_bar,casual,1,0,1,0,0,0,0,0,0,1
104,eoyvbnRYQe-z85e8Rc6vAg,Grotto Ristorante,129 E Fremont St,Las Vegas,NV,89101,36.1703149,-115.1448997,4,500,1,"Italian, Restaurants, Bars, Nightlife, American (Traditional), Pizza, Beer, Wine & Spirits, Food",1,1,1,1,0,average,1,2,0,0,1,1,paid,full_bar,casual,1,0,1,0,0,0,1,0,0,1
105,2HxaDXZmAOH6LiuzGgNdPA,Farmer Boys,7010 S Rainbow Blvd,Las Vegas,NV,89118,36.0615179,-115.2424786,3,220,1,"American (Traditional), Sandwiches, Restaurants, Breakfast & Brunch, Salad, Mexican, Diners, Burgers",1,0,2,1,0,average,1,1,0,1,1,0,free,none,casual,1,0,1,0,0,1,0,0,0,1
107,g8oxQ1Ji9mr9PMjhEfaWSg,Dick's Last Resort,3850 Las Vegas Blvd S,Las Vegas,NV,89109,36.0994443,-115.1754685,3,853,1,"American (New), Food, Bars, American (Traditional), Restaurants, Nightlife, Beer, Wine & Spirits",1,1,2,1,1,average,1,2,1,0,1,1,no,full_bar,casual,1,0,1,0,0,0,0,0,0,1
108,sOYsxYYFl03PhHmz_rBDZQ,The Sparklings,"8310 S Rainbow Blvd, Ste 100",Las Vegas,NV,89139,36.0373842,-115.2429489,4,829,1,"Restaurants, American (New)",1,1,3,1,0,average,1,2,1,1,1,1,free,full_bar,casual,1,0,1,0,0,0,0,0,0,1
109,EfAqol3tWckyNrBMIooJmg,Kabob N More,3049 S Las Vegas Blvd,Las Vegas,NV,89109,36.13175404,-115.164273,3.5,304,1,"Arabian, Indian, Restaurants, Pakistani, Halal",1,1,2,1,1,quiet,1,2,0,1,1,1,free,none,casual,1,1,1,0,0,0,0,1,0,0
110,Hr-3nCQLKOYN6qTLtbOmcg,Streetcar Po-boys,1624 W Oakey Blvd,Las Vegas,NV,89102,36.1520371,-115.1632669,3.5,115,0,"Comfort Food, Restaurants, Soul Food, Sandwiches, Cajun/Creole",1,1,1,1,0,average,1,2,0,0,1,0,no,none,casual,1,1,1,0,0,0,0,0,0,0
111,biSsdqExmdvIKiFuowOadg,Lucky Foo's Restaurant & Bar,8955 S Eastern Ave,Las Vegas,NV,89123,36.02651027,-115.1191954,4,306,0,"American (New), Asian Fusion, Sushi Bars, Restaurants, American (Traditional)",1,1,1,1,1,average,1,2,1,1,1,1,free,full_bar,casual,1,0,1,0,0,0,0,0,0,1
112,XsSgv3vBOyOBXn3Co8EVIg,Q Bistro,"3400 S Jones Blvd, Ste 12",Las Vegas,NV,89146,36.1273969,-115.2240685,4.5,516,1,"American (New), Nightlife, Korean, Bars, Barbeque, Chicken Wings, Restaurants, Asian Fusion, Pizza, Soup",1,1,3,1,1,average,1,2,0,1,2,1,free,beer_and_wine,casual,1,0,1,0,0,0,0,0,0,1
113,CtZ3HujCLTChyoad_L-nHA,PizzaRev,"7090 South Rainbow Blvd, Suite 110",Las Vegas,NV,89118,36.059716,-115.242234,4,459,1,"Restaurants, Pizza",1,0,2,0,0,average,1,1,1,1,1,1,no,beer_and_wine,casual,1,0,1,0,0,0,0,0,0,0
114,XwJ6fZRVbxQYRsryy4-qDw,Urban Crawfish Station,"4821 Spring Mountain Rd, Ste C",Las Vegas,NV,89103,36.1259785,-115.2075817,4.5,578,1,"Cajun/Creole, Vietnamese, Seafood, American (Traditional), Restaurants",1,0,2,2,1,average,1,2,0,0,1,1,free,beer_and_wine,casual,1,0,1,0,0,0,0,0,0,1
115,n0bg7kf6HcpFchCtxJyc5A,Mr Chow,3570 Las Vegas Blvd S,Las Vegas,NV,89109,36.11589256,-115.1769328,3,392,1,"Restaurants, Chinese",0,1,1,2,0,average,1,4,1,0,3,0,free,full_bar,dressy,1,0,1,1,0,0,0,0,0,0
116,EneqsOFGCK4KXofNHsc5aQ,In-N-Out Burger,"3545 S Las Vegas Blvd, Ste L24",Las Vegas,NV,89109,36.1174214,-115.1701669,4,487,1,"American (Traditional), Burgers, Fast Food, Restaurants",1,0,3,0,0,average,1,1,1,0,2,0,no,none,casual,1,0,1,0,0,0,0,0,0,1
117,A4zLP5AyKEEHQr_dWEZKig,Cleo,2535 S Las Vegas Blvd,Las Vegas,NV,89109,36.1422486,-115.156616,4.5,534,1,"Restaurants, Mediterranean, American (New), Tapas/Small Plates, Greek, Middle Eastern",0,1,1,2,0,average,1,3,0,0,1,0,no,full_bar,casual,1,0,1,0,0,0,0,0,0,1
118,DW0ZvWuYaSvMcB_3LG5RGg,Pei Wei,10830 W Charleston Blvd,Las Vegas,NV,89135,36.161278,-115.331443,3.5,210,1,"Restaurants, Chinese, Asian Fusion, Fast Food, Gluten-Free",1,0,2,1,1,average,1,2,1,1,1,0,no,beer_and_wine,casual,1,0,1,1,0,0,0,0,0,0
119,RkOguMKU13hPglELb6t2Vg,Royal Indian Bistro,3700 W Flamingo Rd,Las Vegas,NV,89103,36.11680222,-115.1856472,3.5,192,1,"Ethnic Food, Indian, Food, Vegan, Bars, Vegetarian, Specialty Food, Nightlife, Restaurants, Soup",1,1,2,3,1,quiet,1,2,0,0,1,1,free,full_bar,casual,1,0,1,0,0,0,0,1,0,0
120,n8Zqqhff-2cxzWt_nwhU2Q,Public School 702,1850 Festival Plaza Dr,Las Vegas,NV,89135,36.151269,-115.332772,4,1167,1,"Gastropubs, Bars, American (New), Restaurants, Nightlife",1,1,3,3,0,average,1,2,1,1,2,1,free,full_bar,casual,1,0,1,0,0,0,0,0,0,1
121,BhueLLvA0k9G1Lr0WeZX9w,Café Zupas,7060 S Rainbow Blvd,Las Vegas,NV,89118,36.06031974,-115.2416231,3.5,302,1,"Salad, Restaurants, Soup, Sandwiches, American (New)",1,0,3,0,1,average,1,2,1,1,1,0,no,none,casual,1,0,1,0,0,0,0,0,0,1
122,54WM5coZonA0izd2y04p_A,Famous Dave's Barbeque,9695 W Flamingo Rd,Las Vegas,NV,89147,36.11418074,-115.3039206,3.5,202,0,"Caterers, Restaurants, Event Planning & Services, Sandwiches, Barbeque",1,1,2,1,1,average,1,2,0,1,1,1,no,full_bar,casual,1,0,1,0,0,0,0,0,0,0
123,gjCmXkMNVE0JSk8puUwv6g,Eatt Gourmet Bistro,"7865 W Sahara Ave, Ste 104 & 105",Las Vegas,NV,89117,36.1433174,-115.262227,4.5,302,1,"Fast Food, Restaurants, Sandwiches, Bakeries, Soup, Salad, Vegan, Gluten-Free, American (New), Breakfast & Brunch, Event Planning & Services, Mediterranean, French, Food, Vegetarian, Personal Chefs, Caterers, Food Delivery Services",1,1,3,1,1,quiet,1,2,1,1,2,1,free,beer_and_wine,casual,1,1,1,0,1,0,0,0,0,1
124,HhVmDybpU7L50Kb5A0jXTg,Guy Fieri's Vegas Kitchen & Bar,3535 S Las Vegas Blvd,Las Vegas,NV,89109,36.11808023,-115.1724324,3.5,3222,1,"Breakfast & Brunch, American (Traditional), African, Restaurants, Bars, Pubs, Burgers, Nightlife, American (New)",1,1,3,1,0,average,1,2,1,0,1,1,no,full_bar,casual,1,0,1,0,0,0,0,0,0,1
125,6TvB1PZCY1Ap2S-yNJPs4w,Hooters Restaurant,115 E Tropicana Ave,Las Vegas,NV,89109,36.100561,-115.167671,2.5,156,1,"Sports Bars, Nightlife, Burgers, Bars, Restaurants, Chicken Wings, American (Traditional), American (New)",0,1,2,3,0,average,1,2,0,0,1,1,free,full_bar,casual,1,0,1,0,0,0,0,0,0,1
126,hh-N1r9O1JpvzGw1mp0bKw,Rock'N'oodles,1108 S 3rd St,Las Vegas,NV,89104,36.1584369,-115.1512011,4.5,310,0,"American (New), Restaurants, Italian, Food, Salad, Local Flavor, Noodles",1,0,2,2,1,average,1,2,1,1,2,1,free,none,casual,0,1,1,0,0,0,1,0,0,1
127,CgCujnZFGzsMPDVo4VNCLA,Blaze Fast-Fire'd Pizza,"10060 W Sahara Ave, Sahara Center",Las Vegas,NV,89117,36.145956,-115.312655,4,128,1,"Salad, Fast Food, Restaurants, Pizza",1,0,3,0,1,average,1,2,1,1,1,0,no,beer_and_wine,casual,1,0,1,0,0,0,0,0,0,0
128,znWHLW1pt19HzW1VY6KfCA,Hash House A Go Go,3700 W Flamingo Rd,Las Vegas,NV,89103,36.117556,-115.188138,3.5,642,1,"Breakfast & Brunch, American (New), Restaurants, American (Traditional)",1,0,3,1,0,average,1,2,0,0,1,0,free,full_bar,casual,1,0,1,0,0,0,0,0,0,1
129,ZhLSAiRj9kANxf8m2SBfRA,Lucki Thai,467 E Silverado Ranch Blvd,Las Vegas,NV,89183,36.01198464,-115.1535986,4.5,712,1,"Thai, Restaurants, Local Flavor",1,1,2,1,1,average,1,2,0,1,1,0,no,beer_and_wine,casual,1,1,1,0,0,0,0,0,0,0
130,fE7x3Ui2mzdwdfJnd7r_1g,Earl of Sandwich,3570 S Las Vegas Blvd,Las Vegas,NV,89109,36.116156,-115.175059,3,151,1,"Coffee & Tea, Sandwiches, Food Court, Event Planning & Services, Food, Salad, Wraps, Caterers, Restaurants",1,0,1,1,0,loud,1,2,0,0,2,0,no,beer_and_wine,casual,1,0,1,0,0,0,0,0,0,0
131,UGiMMw54qYxac0eE_cBbaA,Sammy's Beach Bar & Grill,5757 Wayne Newton Blvd,Las Vegas,NV,89169,36.08268837,-115.1482591,2.5,222,1,"Bars, Restaurants, Mexican, Nightlife, Sports Bars, American (New)",1,0,2,1,0,average,1,2,0,0,2,1,no,full_bar,casual,0,0,1,0,0,1,0,0,0,1
132,isw3cS3hOKdKeBgi3lF3-A,Eureka!,520 E Fremont St,Las Vegas,NV,89101,36.1689261,-115.1395913,4.5,231,1,"Breakfast & Brunch, Nightlife, Restaurants, Cocktail Bars, American (Traditional), Bars",0,0,6,3,0,average,1,2,1,1,3,1,free,full_bar,casual,1,1,1,0,0,0,0,0,0,1
133,296PZdxSrtH08EUwCsOKMw,Michael's Gourmet Room,9777 S Las Vegas Blvd,Las Vegas,NV,89183,36.011478,-115.174141,4.5,165,1,"Restaurants, Seafood, Steakhouses, American (New), Casinos, Hotels & Travel, Event Planning & Services, Arts & Entertainment, American (Traditional), Hotels",0,1,1,2,0,quiet,0,4,0,0,3,0,no,full_bar,dressy,1,0,1,0,0,0,0,0,0,1
134,EMrghF81px-wnNqEYqA0Kw,Panera Bread,740 S Rampart Blvd,Las Vegas,NV,89145,36.16327885,-115.2891617,3,169,1,"Breakfast & Brunch, Soup, Food, Sandwiches, Restaurants, American (New), Bagels, Salad",1,0,3,1,1,average,1,1,1,1,1,0,free,none,casual,1,0,1,0,0,0,0,0,0,1
136,vx4YAA02Qz6khRD1fZ1MFA,Ping Pang Pong,4000 W Flamingo Rd,Las Vegas,NV,89103,36.116901,-115.193512,3.5,1005,1,"Cantonese, Seafood, Dim Sum, Restaurants, Chinese",1,0,2,1,0,loud,1,2,0,0,1,0,free,beer_and_wine,casual,1,0,1,1,0,0,0,0,0,0
137,X11JfeIVH9d6qMrDqA-N7A,Scooter's Pub,6200 S Rainbow Blvd,Las Vegas,NV,89118,36.0759368,-115.2422872,4,177,1,"Bars, Nightlife, American (Traditional), Sports Bars, Restaurants",0,0,2,1,0,average,1,2,0,1,1,1,free,full_bar,casual,1,0,1,0,0,0,0,0,0,1
139,HykZIiaHS35N2c5_QHoClA,Manna Korean BBQ,"6475 W Charleston Blvd, Ste 140",Las Vegas,NV,89146,36.1586808,-115.2367199,4.5,110,1,"Korean, Restaurants, Soul Food, Bubble Tea, Barbeque, Food",1,0,1,1,1,average,1,1,1,1,1,0,free,none,casual,1,1,1,0,0,0,0,0,0,0
141,dYMhfzyZyklXELmYq_wfKg,Flavors The Buffet,3475 Las Vegas Blvd S,Las Vegas,NV,89109,36.11992826,-115.172435,3,704,1,"Restaurants, Buffets",1,1,4,1,0,average,1,2,0,0,1,1,no,beer_and_wine,casual,1,0,1,0,0,0,0,0,0,0
142,8yiLVWzJyyTEhYE0fVNvlA,Il Mulino New York,"3500 Las Vegas Blvd S, Ste T30",Las Vegas,NV,89109,36.119468,-115.173077,4,305,1,"Restaurants, Italian",0,1,1,2,1,quiet,0,4,1,0,1,0,no,full_bar,dressy,1,0,1,0,0,0,1,0,0,0
143,YRiQtFNteLUUEiGkdQ23vg,All-American Bar & Grille,3700 W Flamingo Rd,Las Vegas,NV,89103,36.117207,-115.188261,3,416,1,"Seafood, Restaurants, American (Traditional), Sports Bars, Bars, Nightlife",1,1,3,1,0,average,1,2,0,1,1,1,no,full_bar,casual,1,0,1,0,0,0,0,0,0,1
144,YRyYbOSwvHkZsZOLv98oQg,Estiatorio Milos,"3708 Las Vegas Blvd S, Level 3, Boulevard Tower",Las Vegas,NV,89109,36.10939219,-115.173773,4,1063,1,"Seafood, Greek, Restaurants",0,1,2,1,1,average,0,3,1,0,2,0,no,full_bar,dressy,1,0,1,0,0,0,0,0,0,0
145,FYqFfaxVRW6pdviONXIoDw,Fleming's Prime Steakhouse & Wine Bar - Las Vegas,6515 S Las Vegas Blvd,Las Vegas,NV,89119,36.06956753,-115.1737474,4,389,1,"Nightlife, Restaurants, Steakhouses, American (New), Seafood, Bars, Wine Bars",0,1,1,1,0,average,1,3,1,0,1,1,free,full_bar,dressy,1,0,1,0,0,0,0,0,0,1
146,nW27OMU438BjZF64lj97sQ,Pho 90,"4355 W Spring Mountain Rd, Ste 101A",Las Vegas,NV,89102,36.12600812,-115.198455,4,247,1,"Restaurants, Vietnamese, Food, Sandwiches, Coffee & Tea, Breakfast & Brunch, Soup",1,0,4,1,0,average,1,1,0,1,1,1,no,none,casual,1,0,1,0,0,0,0,0,0,0
147,Cl-xl1vTUwHeaGgBxzdTRA,Chow Mein House,10300 W Charleston Blvd,Las Vegas,NV,89135,36.16021403,-115.321554,4,182,1,"Restaurants, Chinese",1,1,2,0,1,average,1,2,0,1,1,1,free,beer_and_wine,casual,1,1,1,1,0,0,0,0,0,0
148,GxfgOFgUhv2rfr3FXVWfCg,Pizza My Dear,"1725 E Warm Springs Rd, Ste 9",Las Vegas,NV,89119,36.05730087,-115.1283009,4,231,1,"Sandwiches, Gluten-Free, Food, Italian, Pizza, Food Delivery Services, Restaurants",1,0,2,1,1,quiet,1,1,0,0,1,0,no,none,casual,1,1,1,0,0,0,1,0,0,0
149,M9zu5KTyVwVC-45Mn8Wp0g,Taste,"7945 S Rainbow Blvd, Ste B",Las Vegas,NV,89139,36.04439434,-115.243879,4,157,1,"Seafood, Chinese, Szechuan, Cantonese, Restaurants",1,1,3,1,1,average,1,2,0,1,1,1,no,beer_and_wine,casual,1,1,1,1,0,0,0,0,0,0
151,EdY6q0CO2mlATpoTFkvHAw,Dim Sum Cafe,3700 S Hualapai Way,Las Vegas,NV,89147,36.12175389,-115.3143929,4,385,1,"Chinese, Dim Sum, Cafes, Restaurants",1,0,3,1,1,quiet,1,1,0,1,1,1,no,beer_and_wine,casual,1,1,1,1,0,0,0,0,0,0
152,6ANVuBMmpkXpFd5Hzkn4_Q,Red 8,3131 Las Vegas Blvd S,Las Vegas,NV,89109,36.12578335,-115.1659684,3.5,550,1,"Chinese, Diners, Asian Fusion, Buffets, Restaurants",1,1,2,2,0,average,1,2,0,0,0,0,no,full_bar,casual,1,0,1,1,0,0,0,0,0,0
153,YkAcruXbhN6sHDXn0jcySw,Norm's Eggs Cafe,"3655 S Durango Dr, Ste 29",Las Vegas,NV,89147,36.1232761,-115.2796896,3.5,182,0,"Burgers, Restaurants, Breakfast & Brunch",1,0,3,1,1,average,1,1,1,1,1,1,free,none,casual,1,0,1,0,0,0,0,0,0,0
154,ibFdignja_hNpgCjDYP7Ug,Wahoo's Fish Tacos,7020 W Sunset Rd,Las Vegas,NV,89113,36.07086273,-115.2449476,4,278,1,"Seafood, Food, Gluten-Free, Restaurants, Mexican",1,0,3,1,1,average,1,1,0,1,1,1,free,full_bar,casual,1,1,1,0,0,1,0,0,0,0
155,X5uxdU9GHoUAqo2wmbg3OQ,Island Malaysian Cuisine,"5115 Spring Mountain Rd, Ste 217",Las Vegas,NV,89103,36.125592,-115.211199,4,265,1,"Asian Fusion, Malaysian, Ethnic Food, Food, Specialty Food, Thai, Singaporean, Chinese, Restaurants",1,1,2,2,1,average,1,2,0,1,1,1,free,beer_and_wine,casual,1,1,1,1,0,0,0,0,0,0
157,QnfAHUr5-HTiaA5-va3glQ,Streets of New York,"5135 S Fort Apache, Ste #35",Las Vegas,NV,89148,36.0950052,-115.2981583,3.5,228,1,"Sandwiches, Pizza, Italian, Restaurants",1,1,2,1,1,average,1,2,0,1,1,1,free,beer_and_wine,casual,1,1,1,0,0,0,1,0,0,0
158,8pmGz3Lg4f_r7HdDZPa4dQ,Payless Pizza,"5785 W Tropicana Ave, Ste 3",Las Vegas,NV,89103,36.0994967,-115.220404,4,405,1,"American (Traditional), American (New), Pizza, Italian, Food, Barbeque, Salad, Restaurants",1,1,2,1,1,quiet,1,1,1,1,1,1,free,none,casual,1,1,1,0,0,0,1,0,0,1
159,SU56w479vUfFHsvmvQIf7A,India Oven,2218 Paradise Rd,Las Vegas,NV,89119,36.1446996,-115.1551759,3.5,133,0,"Restaurants, Indian, Pakistani",1,1,2,1,1,quiet,1,2,0,1,0,0,no,beer_and_wine,casual,1,1,1,0,0,0,0,1,0,0
160,fhvLEIKdL8Xw3ZKrHCPcpA,Canter's Las Vegas,"330 S Rampart Blvd, Ste 160",Las Vegas,NV,89145,36.168389,-115.285329,3,339,0,"Event Planning & Services, Restaurants, Delis, Venues & Event Spaces",1,0,5,3,1,quiet,1,2,1,1,1,0,free,beer_and_wine,casual,1,1,1,0,0,0,0,0,0,0
161,N0apJkxIem2E8irTBRKnHw,Wolfgang Puck Bar & Grill Las Vegas,3799 Las Vegas Blvd S,Las Vegas,NV,89109,36.102543,-115.169884,4,1615,1,"Sandwiches, Pizza, Salad, Food, Beer, Wine & Spirits, Nightlife, Bars, Restaurants, Hotels & Travel, American (New)",1,1,1,2,0,average,1,2,0,0,1,1,free,full_bar,casual,1,0,1,0,0,0,0,0,0,1
162,yEyA7uILKG97qnyx3K2WAg,Center Cut Steakhouse,3555 Las Vegas Blvd S,Las Vegas,NV,89109,36.11643684,-115.1721598,3,261,1,"Steakhouses, Restaurants",0,1,1,2,0,average,0,3,0,0,0,1,no,full_bar,casual,1,0,1,0,0,0,0,0,0,0
163,2LNnIARy-lGmrlEMZSxZ1w,Great Buns Bakery,3270 E Tropicana Ave,Las Vegas,NV,89121,36.100745,-115.103546,4.5,154,1,"Sandwiches, Food, Restaurants, Desserts, Bakeries",1,0,1,1,0,average,1,1,0,1,1,0,no,none,casual,0,1,1,0,0,0,0,0,0,0
164,EUWBT5GDxPC95w9itZ1EHw,Garden Court Buffet,200 N Main St,Las Vegas,NV,89101,36.17409732,-115.1451099,3.5,556,1,"Restaurants, Hotels, Event Planning & Services, Hotels & Travel, Buffets, American (Traditional), Casinos, Arts & Entertainment",1,0,4,1,0,average,0,2,0,1,1,0,no,beer_and_wine,casual,1,0,1,0,0,0,0,0,0,1
165,rx1AEnleVRWMNz6vB-YhfQ,China One,921 S Rainbow Blvd,Las Vegas,NV,89145,36.1611511,-115.2453624,3.5,124,1,"Restaurants, Chinese, Food",1,0,2,0,1,average,1,1,0,1,0,0,no,none,casual,1,1,1,1,0,0,0,0,0,0
166,grlL6zmHBOer9rPycsRhBA,Bocho Sushi,124 S 6th St,Las Vegas,NV,89101,36.1679746,-115.1404417,4.5,461,1,"Bars, Sushi Bars, Nightlife, Restaurants, Japanese",1,1,2,1,0,average,1,2,0,1,3,1,free,full_bar,casual,1,0,1,0,0,0,0,0,1,0
167,#NAME?,MGM Grand Buffet,3799 Las Vegas Blvd S,Las Vegas,NV,89109,36.10209118,-115.1717784,2.5,1162,1,"Buffets, Restaurants, American (Traditional)",1,0,2,1,0,average,0,2,0,0,1,0,free,full_bar,casual,1,0,1,0,0,0,0,0,0,1
168,wZvSsHFU0NdyQ03625kh6g,Capital Seafood Restaurant,"4215 W Spring Mountain Rd, Ste B-202",Las Vegas,NV,89102,36.12541155,-115.1956302,3.5,159,1,"Restaurants, Seafood, Chinese",1,1,2,1,1,average,1,2,0,1,1,0,no,beer_and_wine,casual,1,0,1,1,0,0,0,0,0,0
169,faPVqws-x-5k2CQKDNtHxw,Yardbird Southern Table & Bar,3355 Las Vegas Blvd S,Las Vegas,NV,89109,36.12232802,-115.1701118,4.5,3576,1,"Restaurants, American (New), Southern",1,1,3,1,1,average,1,2,0,1,2,1,free,full_bar,casual,1,0,1,0,0,0,0,0,0,1
170,VzekjBEdqFdJsXEOWInA1A,Albo Pizza,1510 S Las Vegas Blvd,Las Vegas,NV,89104,36.1526625,-115.1518372,4,138,1,"Restaurants, Pizza, Food, Pasta Shops, Salad, American (Traditional), Specialty Food, Italian",1,0,3,1,1,quiet,1,1,0,1,1,1,free,none,casual,1,1,1,0,0,0,1,0,0,1
171,qmymSqVwHYRqdwfcBatzpQ,Vintner Grill,"10100 W Charleston Blvd, Ste 150",Las Vegas,NV,89135,36.15943769,-115.3166287,4,687,1,"American (New), Wine Bars, Sandwiches, Cocktail Bars, Bars, Nightlife, American (Traditional), Restaurants",0,1,1,2,1,average,1,3,1,0,1,1,free,full_bar,dressy,1,0,1,0,0,0,0,0,0,1
172,d_L-rfS1vT3JMzgCUGtiow,Border Grill,3950 S Las Vegas Blvd,Las Vegas,NV,89119,36.09006691,-115.1769729,4,1623,1,"Breakfast & Brunch, Restaurants, Tapas/Small Plates, Mexican",1,1,2,2,1,average,1,2,1,0,1,1,free,full_bar,casual,1,0,1,0,0,1,0,0,0,0
174,16Fplxu-OwVmTEFxQAUP4g,TENDER Steakhouse,3900 Las Vegas Blvd S,Las Vegas,NV,89109,36.09535564,-115.1766143,3.5,473,1,"Nightlife, Restaurants, Bars, Steakhouses, American (Traditional)",0,1,1,2,0,quiet,0,3,0,0,1,0,no,full_bar,dressy,1,0,1,0,0,0,0,0,0,1
175,2dCnTMv3Hh-fM8bOjYS4Xw,Nevada Chicken Cafe,6155 W Sahara Ave,Las Vegas,NV,89146,36.1437858,-115.2266305,3.5,372,1,"Cafes, Sandwiches, Delis, Wraps, Restaurants, American (Traditional), Barbeque, Chicken Shop, Food, American (New), Salad",1,0,2,1,1,average,1,2,1,1,1,1,no,beer_and_wine,casual,1,1,1,0,0,0,0,0,0,1
176,R_fQGSUQv0L_fRiuua47dw,Neighbors,5910 S Fort Apache Rd,Las Vegas,NV,89148,36.0811779,-115.2970471,4.5,391,1,"Coffee & Tea, Breakfast & Brunch, Restaurants, Food",1,0,3,1,1,average,1,2,0,1,1,0,free,none,casual,1,0,1,0,0,0,0,0,0,0
177,OaM2Bjeo2Ftt84ruTrzPNQ,Wings Restaurants,9985 S Eastern Ave,Las Vegas,NV,89183,36.006758,-115.116175,3.5,155,1,"Restaurants, Chicken Wings",1,0,2,1,1,quiet,1,1,0,1,0,1,no,none,casual,1,0,1,0,0,0,0,0,0,0
178,Zx4iQCmQfAaXvwPc3TlF9Q,The Tap House,5589 W Charleston Blvd,Las Vegas,NV,89146,36.1587611,-115.2182327,4,135,1,"Bars, Nightlife, Italian, Restaurants",0,0,3,1,1,average,1,2,0,1,1,1,no,full_bar,casual,1,0,1,0,0,0,1,0,0,0
179,9UZbY3FxhpNZ8sVWcYON6A,Cicis,2415 E Tropicana Ave,Las Vegas,NV,89121,36.09867707,-115.1186782,3,136,1,"Restaurants, Buffets, Pizza, American (Traditional)",1,0,2,1,0,average,1,1,0,1,1,1,free,none,casual,1,0,1,0,0,0,0,0,0,1
180,vFfU79z5a5jQaQA_ka2ftA,Distill - A Local Bar,"6430 N Durango Dr, Ste 110",Las Vegas,NV,89149,36.2777832,-115.2863335,4,229,1,"Restaurants, Food, American (New), Desserts, Cocktail Bars, Bars, Breakfast & Brunch, Nightlife",0,0,5,2,0,average,1,2,0,1,1,1,free,full_bar,casual,1,0,1,0,0,0,0,0,0,1
181,rq5dgoksPHkJwJNQKlGQ7w,Sambalatte Torrefazione,"750 S Rampart Blvd, Ste 9",Las Vegas,NV,89145,36.16418023,-115.2896297,4,855,1,"Restaurants, Breakfast & Brunch, Coffee & Tea, American (New), Cafes, Food",1,0,2,1,0,average,1,1,1,1,2,1,free,none,casual,1,0,1,0,0,0,0,0,0,1
182,zBD6zc8YU-TA0_KJmN1tpA,Rosati's Pizza,3370 S Hualapai Way,Las Vegas,NV,89117,36.128386,-115.3144557,3.5,178,1,"Food, Italian, Salad, Restaurants, Pizza",1,0,2,1,1,average,1,2,0,0,1,0,free,none,casual,1,1,1,0,0,0,1,0,0,0
183,TeggG3duunpoy__1Y2SAyQ,Aloha Kitchen,4745 S Maryland Pkwy,Las Vegas,NV,89119,36.10362701,-115.1377691,4,464,1,"Hawaiian, Restaurants",1,0,3,1,1,average,1,1,0,1,1,0,no,none,casual,1,0,1,0,0,0,0,0,0,0
184,sYfHxCqHpIX2HnDhw0JRAA,Ohjah Japanese Steakhouse Sushi & Hibachi,"8595 S Decatur Blvd, Ste 104",Las Vegas,NV,89139,36.03340548,-115.208426,4,529,1,"Restaurants, Steakhouses, Sushi Bars, Japanese",1,1,1,1,0,average,1,2,0,1,1,1,no,full_bar,casual,1,0,1,0,0,0,0,0,1,0
185,8SWZLawwzqwzbXpGQS7gBw,Della's Kitchen,"Delano Las Vegas, 3940 Las Vegas Blvd South",Las Vegas,NV,89119,36.09295135,-115.1775243,3.5,390,1,"Breakfast & Brunch, American (Traditional), Restaurants, Sandwiches",1,1,3,2,1,average,0,2,0,0,1,0,free,full_bar,casual,1,0,1,0,0,0,0,0,0,1
186,3rj1qpgFvkRWtAka17mhEQ,Mimi's Cafe,6760 N Durango Dr,Las Vegas,NV,89149,36.28286913,-115.2871548,3,248,1,"French, Cafes, Restaurants, Breakfast & Brunch, American (Traditional)",1,1,5,1,1,average,1,2,1,1,1,0,no,full_bar,casual,1,0,1,0,1,0,0,0,0,1
187,gTw6PENNGl68ZPUpYWP50A,Soyo Korean Barstaurant,"7775 S Rainbow Blvd, Ste 105",Las Vegas,NV,89139,36.04680238,-115.2441707,4,913,1,"Nightlife, Korean, Barbeque, Restaurants, Bars",1,1,2,1,0,average,1,2,1,1,1,0,no,full_bar,casual,1,0,1,0,0,0,0,0,0,0
188,bQ_wtZvMb__OhprY5bF9aQ,Crab Corner,4161 S Eastern Ave,Las Vegas,NV,89118,36.1129986,-115.119895,4,392,0,"Seafood, Bars, Nightlife, Restaurants, Sports Bars",1,0,2,1,1,average,1,2,1,1,1,1,free,full_bar,casual,1,1,1,0,0,0,0,0,0,0
190,WcGKG8_rDVBVx6lSTlWiDA,Cafe Rio,7664 W Lake Mead Blvd,Las Vegas,NV,89128,36.19659018,-115.2621223,2.5,154,1,"Food, Restaurants, Mexican",1,0,2,1,1,average,1,1,1,1,1,0,no,none,casual,1,0,1,0,0,1,0,0,0,0
191,hPclwunHi36YV8cPghWJBg,Thai Food To Go,"3242 E Desert Inn Rd, Ste 9",Las Vegas,NV,89121,36.130369,-115.10336,4.5,384,1,"Food Delivery Services, Thai, Asian Fusion, Noodles, Restaurants, Food, Fast Food",1,0,2,1,1,average,1,1,0,1,1,1,no,none,casual,0,1,1,0,0,0,0,0,0,0
194,vl2IZrNJEA8npSjqXbdwxw,BabyStacks Cafe,"2400 N Buffalo Dr, Ste 145",Las Vegas,NV,89128,36.204189,-115.260244,4,1247,1,"Restaurants, Coffee & Tea, Food, American (Traditional), Breakfast & Brunch",1,0,2,1,0,average,1,2,0,1,1,1,free,none,casual,1,0,1,0,0,0,0,0,0,1
195,AYe8rS3qBPuLHSwNOZSbcA,Sushi Loca,10965 Lavender Hill Dr,Las Vegas,NV,89135,36.14504941,-115.3328245,3,285,1,"Food, Restaurants, Sushi Bars",1,1,2,0,0,average,1,2,0,1,2,1,free,beer_and_wine,casual,1,0,1,0,0,0,0,0,0,0
196,qkyCuFJF2Uboh6n2Lmuwlg,Lee's Sandwiches,3989 Spring Mountain Rd,Las Vegas,NV,89102,36.12602715,-115.1929697,3,720,1,"Sandwiches, Food, Bakeries, Restaurants",1,0,2,1,1,average,1,1,0,1,1,1,free,none,casual,1,0,1,0,0,0,0,0,0,0
199,Q5sn7sP6v_lk3pxn0xVIlA,Five Guys,"7580 S Las Vegas Blvd, Ste 120",Las Vegas,NV,89123,36.0520271,-115.1715204,4,187,1,"American (New), Restaurants, Food, Burgers, Fast Food",1,0,2,1,0,average,1,1,0,1,1,0,no,none,casual,1,0,1,0,0,0,0,0,0,1
201,hIUKufhwR6Ifn7bi0-phLA,Baguette Cafe,"8359 W Sunset Rd, Ste 100",Las Vegas,NV,89113,36.066865,-115.273241,4.5,1193,1,"Delis, Coffee & Tea, Vegan, Breakfast & Brunch, Food, Cafes, Restaurants, Sandwiches, French",1,0,3,1,1,average,1,1,1,1,1,0,free,none,casual,1,0,1,0,1,0,0,0,0,0
202,E_jLyf_YuGgMP_rw8tvNSA,Niko's Pizza Las Vegas,"4555 S Fort Apache Rd, Ste 112",Las Vegas,NV,89147,36.106477,-115.2980657,4.5,271,1,"Caterers, Restaurants, Desserts, Italian, Mediterranean, Chicken Wings, Sandwiches, Event Planning & Services, Pizza, Food Delivery Services, Food, Salad",1,1,2,1,1,average,1,2,0,0,1,1,free,none,casual,1,1,1,0,0,0,1,0,0,0
203,k1q9f7aJ2TsoSbeA8Qm1aA,Lao Sze Chuan,4321 W Flamingo Rd,Las Vegas,NV,89103,36.114539,-115.195684,3,133,0,"Chinese, Cantonese, Asian Fusion, Restaurants, Szechuan",1,1,1,1,1,average,1,2,0,1,1,0,free,full_bar,casual,1,0,1,1,0,0,0,0,0,0
205,LrxDRg8SQdgHMoz3TSAYFg,DT's Filipino Food and Karaoke,"7320 S Rainbow Blvd, Ste 107",Las Vegas,NV,89123,36.0553574,-115.2414974,3,235,0,"Noodles, Restaurants, Seafood, Filipino",1,1,3,1,1,average,1,2,0,1,1,1,no,none,casual,1,1,1,0,0,0,0,0,0,0
206,k8BqCejnaMlw7aoVthvqyw,The Bootlegger Italian Bistro,"7700 Las Vegas Blvd S, Ste 1",Las Vegas,NV,89123,36.04899216,-115.1715393,4,969,1,"Event Planning & Services, Restaurants, Steakhouses, Wedding Planning, Italian, Venues & Event Spaces, Nightlife",1,1,2,1,1,average,1,2,1,1,1,1,no,full_bar,casual,1,0,1,0,0,0,1,0,0,0
207,E67gGK8yOn9kkNzx8FzQKA,Buffalo Wild Wings,"4280 Hualapi, #108",Las Vegas,NV,89147,36.1122611,-115.3142242,3,328,1,"Bars, Sports Bars, Nightlife, Chicken Wings, American (Traditional), Restaurants",1,0,3,1,1,loud,1,2,0,1,1,1,free,full_bar,casual,1,0,1,0,0,0,0,0,0,1
208,nJcyfIRGbI31EGLzillWYg,Vince Neil's Tatuado EAT DRINK PARTY,2880 S Las Vegas Blvd,Las Vegas,NV,89109,36.13711223,-115.1633105,3,393,1,"Restaurants, Breakfast & Brunch, Bars, Food, Sports Bars, American (New), American (Traditional), Nightlife, Beer, Wine & Spirits",1,1,3,1,1,average,0,2,0,0,2,1,no,full_bar,casual,1,0,1,0,0,0,0,0,0,1
209,2m4092MsMzEHkuxodaj6-g,Ondori Asian Kitchen,4500 W Tropicana Ave,Las Vegas,NV,89103,36.102841,-115.201787,4,164,1,"Restaurants, Asian Fusion, Chinese, Sushi Bars, Japanese",1,1,2,2,0,average,1,2,0,1,1,0,free,beer_and_wine,casual,1,0,1,1,0,0,0,0,1,0
211,Zdg1CnOe2zVDf5Egzf9RXw,Denny's,3397 S Las Vegas Blvd,Las Vegas,NV,89109,36.1209486,-115.1717738,2.5,264,1,"Restaurants, Breakfast & Brunch, Food, Diners, American (Traditional)",1,0,3,0,0,average,1,2,0,0,1,0,free,none,casual,1,0,1,0,0,0,0,0,0,1
212,MohTx0z3LnzAnr0bIsstHQ,OWL,"3990 W Russell Rd, Ste 1",Las Vegas,NV,89118,36.08684,-115.192734,4.5,144,0,"Gastropubs, Beer Bar, American (New), Restaurants, Cocktail Bars, Bars, Breakfast & Brunch, Nightlife",0,1,0,1,1,average,1,2,0,0,2,1,free,full_bar,casual,1,1,1,0,0,0,0,0,0,1
213,Jjwa-WCK73efAwVZRksWSw,POTs,"1745 S Rainbow Blvd, Ste A",Las Vegas,NV,89146,36.1520101,-115.2437045,5,166,1,"Vegan, Egyptian, Restaurants, Vegetarian, Middle Eastern",1,1,3,1,1,quiet,1,1,0,1,1,0,free,none,casual,0,1,1,0,0,0,0,0,0,0
214,vAh6WNioOEw7G9tGhd_JQw,Food Express Chinese Restaurant,"2003 S Decatur Blvd, Ste B",Las Vegas,NV,89102,36.1497812,-115.2075811,4,214,1,"Chinese, Restaurants",1,1,2,1,1,average,1,2,0,0,1,0,no,beer_and_wine,casual,1,0,1,1,0,0,0,0,0,0
215,8-8btzuYZCqEVOPwk0YYfA,Gen Korean BBQ House,5125 W Sahara Ave,Las Vegas,NV,89146,36.1441245,-115.2108226,4,329,1,"Barbeque, Korean, Restaurants",1,0,3,0,0,average,0,2,0,1,2,1,no,full_bar,casual,1,0,1,0,0,0,0,0,0,0
216,XKo3y41cF6euqS7I6AX_1Q,Teriyaki Boy Healthy Grill,"7320 S Rainbow Blvd, Ste 100",Las Vegas,NV,89139,36.0553309,-115.2413886,4,143,1,"Asian Fusion, Fast Food, Restaurants, Japanese",1,0,2,1,1,quiet,1,1,0,1,1,0,no,none,casual,1,1,1,0,0,0,0,0,1,0
217,CVECSCW-7zDzjpIPxsew4g,Tacos El Compita,6118 W Charleston Blvd,Las Vegas,NV,89146,36.15997196,-115.2246686,4.5,146,1,"Food, Restaurants, Mexican",1,0,2,1,1,average,1,1,0,0,1,1,no,none,casual,1,0,1,0,0,1,0,0,0,0
218,YCm7wypibp04buWh-jRRpg,Cafe Summer,"7965 S Rainbow Blvd, Ste110",Las Vegas,NV,89139,36.04406821,-115.2444228,4,321,1,"Food, Desserts, Asian Fusion, Cafes, Delicatessen, Restaurants, Bubble Tea, Coffee & Tea, Juice Bars & Smoothies",1,0,3,1,0,average,1,1,0,0,2,0,free,none,casual,1,0,1,0,0,0,0,0,0,0
219,y7Js-07RF8d3N_AEtaw2VQ,Heart Attack Grill,450 Fremont St,Las Vegas,NV,89101,36.1694,-115.140782,3,1049,1,"Restaurants, Arts & Entertainment, Burgers, Performing Arts, American (Traditional)",0,0,2,0,0,average,0,2,1,0,1,1,no,full_bar,casual,1,0,0,0,0,0,0,0,0,1
221,82g1PwX5FvclqqdjJHcVNA,Bomb Tacos,"3655 South Durango Dr, Ste 27",Las Vegas,NV,89147,36.1234407,-115.2799153,4.5,368,1,"Mexican, Restaurants",1,1,2,0,1,average,1,2,0,1,1,1,free,none,casual,1,0,1,0,0,1,0,0,0,0
222,Cpb142L849ilMzgiSR4a0w,Tina's Filipino Cuisine,"7720 S Jones Blvd, Ste 105",Las Vegas,NV,89139,36.04888424,-115.2244692,4,252,1,"Restaurants, Filipino",1,1,4,1,1,average,1,1,0,1,1,1,no,none,casual,1,0,1,0,0,0,0,0,0,0
223,UCpUOtvqR-NBWBNVMzJleA,Blue Martini Lounge,"6593 Las Vegas Blvd S, Bldg L B214",Las Vegas,NV,89119,36.06837063,-115.1775359,3.5,930,1,"Lounges, Nightlife, Bars, Restaurants, American (New)",0,1,1,0,0,loud,0,2,1,1,1,1,free,full_bar,casual,1,0,1,0,0,0,0,0,0,1
225,1SE9f6TEV5XhnTuuK01xwA,Wingstop,3910 S Maryland Pkwy,Las Vegas,NV,89119,36.11790839,-115.1371387,3,172,1,"Fast Food, American (New), Restaurants, Food, Chicken Wings",1,0,2,0,1,average,1,2,0,1,1,1,no,beer_and_wine,casual,1,1,1,0,0,0,0,0,0,1
226,UFcCwCkp9K5D8c03Pwi7sA,Sin City Sushi,8790 S Maryland Pkwy,Las Vegas,NV,89123,36.0302336,-115.1354155,3.5,189,1,"Sushi Bars, Japanese, Restaurants",1,1,2,1,0,average,1,2,0,1,1,1,no,beer_and_wine,casual,1,0,1,0,0,0,0,0,1,0
227,ijg7qQCYnhUWBd5JUxbfvA,Roxy's Diner,2000 Las Vegas Blvd S,Las Vegas,NV,89104,36.1473845,-115.1566778,3,413,0,"Restaurants, Breakfast & Brunch, Diners, Food, Desserts, Burgers",1,0,1,0,0,average,1,2,0,0,1,0,no,beer_and_wine,casual,1,0,1,0,0,0,0,0,0,0
228,JPWg9acsCv_om9UFYGMJbA,Fleming's Prime Steakhouse & Wine Bar,8721 W Charleston Blvd,Las Vegas,NV,89117,36.1585332,-115.2857479,4,404,1,"Restaurants, Steakhouses, Breakfast & Brunch, Bars, Wine Bars, Nightlife, Seafood",0,1,1,1,0,average,1,3,0,1,1,1,no,full_bar,dressy,1,0,1,0,0,0,0,0,0,0
229,uW6UHfONAmm8QttPkbMewQ,Island Flavor,"8090 S Durango Dr, Ste 103",Las Vegas,NV,89113,36.0420628,-115.2781558,4.5,1380,1,"Event Planning & Services, Ethnic Grocery, Caterers, Food, Restaurants, Hawaiian",1,0,2,1,1,average,1,2,0,1,1,0,no,none,casual,1,0,1,0,0,0,0,0,0,0
230,6z3cgIE9dJ01wUm43f0yBQ,Fat Dumpling,3959 W Spring Mountain Rd,Las Vegas,NV,89109,36.1260978,-115.1925293,3.5,249,0,"Chinese, Food, Bubble Tea, Restaurants",1,0,4,1,0,quiet,1,1,0,1,1,1,no,none,casual,1,0,1,1,0,0,0,0,0,0
231,SktLID5_ywSlgVE-h3NB3Q,China A GoGo,"7435 S Durango Dr, Ste 105",Las Vegas,NV,89113,36.0529679,-115.2799153,3,138,1,"Restaurants, Chinese",1,1,2,0,1,average,1,1,0,1,1,1,free,none,casual,1,1,1,1,0,0,0,0,0,0
232,SzB85-8tmDEvoapZSDTBkQ,Roberto's Taco Shop,5335 S Decatur Blvd,Las Vegas,NV,89118,36.0928631,-115.2085074,3.5,194,1,"Fast Food, Mexican, Restaurants",1,0,3,1,0,average,1,1,0,1,1,0,no,none,casual,1,0,1,0,0,1,0,0,0,0
233,#NAME?,Einstein Bros Bagels,9540 W Flamingo Rd,Las Vegas,NV,89147,36.115656,-115.300165,3,104,1,"Restaurants, Breakfast & Brunch",1,0,1,1,1,average,1,1,1,1,1,0,free,none,casual,1,0,1,0,0,0,0,0,0,0
234,iiIXOU0L-KUCjuNES2e6Cw,Rubio's,"9310 W Sahara Ave, Ste 100",Las Vegas,NV,89117,36.1449033,-115.2989917,4,110,1,"Fast Food, Caterers, Salad, Seafood, Restaurants, Mexican, Event Planning & Services",1,0,2,1,1,average,1,1,1,1,1,0,free,none,casual,1,0,1,0,0,1,0,0,0,0
235,gtB-1QxTscdPj78UE5sWuQ,Shucks Tavern & Oyster Bar,9338 W Flamingo Rd,Las Vegas,NV,89147,36.11522152,-115.2943618,3.5,276,1,"Seafood, Burgers, Restaurants, American (Traditional), Sports Bars, Bars, Nightlife",1,0,2,1,0,average,1,2,0,1,1,1,free,full_bar,casual,1,0,1,0,0,0,0,0,0,1
236,vl1aHp6pvnSmpoRQShWLjg,Lucille's Smokehouse Bar-B-Que,11011 W Charleston Blvd,Las Vegas,NV,89135,36.15680537,-115.3341114,3.5,633,1,"American (Traditional), Smokehouse, Barbeque, Food, Southern, Restaurants, Bars, Nightlife",1,1,2,1,1,average,1,2,0,1,1,1,no,full_bar,casual,1,0,1,0,0,0,0,0,0,1
237,R1PQEK6qvrZVC9qcWfKvDA,Braddah's Island Style,"4632 S Maryland Pkwy, Ste 17",Las Vegas,NV,89119,36.1050259,-115.1359481,4.5,154,0,"Desserts, Tex-Mex, Food, Restaurants, Mexican, Asian Fusion, Hawaiian",1,0,3,1,1,average,1,1,1,1,2,0,free,none,casual,1,0,1,0,0,1,0,0,0,0
238,diY31IEunbV8MfDh81FS1A,Smashburger,9101 W Sahara Ave,Las Vegas,NV,89117,36.14385651,-115.2960613,3.5,325,1,"Burgers, Restaurants",1,0,2,1,0,average,1,1,0,1,1,0,no,beer_and_wine,casual,1,0,1,0,0,0,0,0,0,0
239,p3YqOYELqXtLyHz9T49p_w,Hot N Juicy Crawfish,3863 Spring Mountain Rd,Las Vegas,NV,89102,36.12621721,-115.1913501,4,779,1,"Seafood, Restaurants, Cajun/Creole",1,0,2,1,0,average,1,2,0,0,1,1,no,beer_and_wine,casual,1,0,1,0,0,0,0,0,0,0
240,f0160VdQERs6Y6Aq-Chvfw,Canyon Ranch Grill,"3355 Las Vegas Blvd S, Fl 3",Las Vegas,NV,89109,36.12371932,-115.1677979,4,116,1,"Restaurants, American (Traditional), American (New), Breakfast & Brunch",0,1,1,1,0,average,1,2,0,0,1,0,free,full_bar,casual,0,0,1,0,0,0,0,0,0,1
241,SgSVJWgMwFteYyz4OlHu9Q,Bambino's East Coast Pizzeria,2555 S Durango Dr,Las Vegas,NV,89117,36.14225436,-115.2794233,4.5,297,1,"Food, Pizza, Italian, Event Planning & Services, Sandwiches, Restaurants, Caterers",1,0,2,1,1,average,1,1,0,1,1,1,free,beer_and_wine,casual,1,1,1,0,0,0,1,0,0,0
243,gwwVVeWXlEfwATjp2cGzuA,Philly Steak Express,"5105 S Fort Apache Rd, Ste 105",Las Vegas,NV,89148,36.0946251,-115.297747,4,165,1,"Burgers, Mediterranean, Salad, American (New), Restaurants",1,0,1,1,1,average,1,1,1,1,1,1,no,none,casual,1,0,1,0,0,0,0,0,0,1
244,qtc1YZix_5lHBJTZq7DOpA,Zeffirino,"3377 Las Vegas Blvd S, Ste 2095, The Venetian",Las Vegas,NV,89109,36.122153,-115.169427,3.5,405,0,"Food, Bars, Restaurants, Beer Bar, Seafood, Beer, Wine & Spirits, Italian, Nightlife",0,1,1,1,1,average,1,3,0,0,1,1,free,full_bar,casual,1,0,1,0,0,0,1,0,0,0
245,bzyoY6HHZJS39fspg-6DrA,Dickey's Barbecue Pit,7430 Las Vegas Blvd. South,Las Vegas,NV,89123,36.0544365,-115.171454,3.5,260,1,"Barbeque, Southern, American (Traditional), Event Planning & Services, Caterers, Restaurants",1,0,2,1,1,average,1,2,0,1,1,1,no,none,casual,1,1,1,0,0,0,0,0,0,1
247,rTS8LsUmNIiXsXydE49tPA,Margaritaville - Las Vegas,3555 Las Vegas Blvd S,Las Vegas,NV,89109,36.117162,-115.172409,3.5,1479,1,"American (Traditional), Arts & Entertainment, Burgers, American (New), Nightlife, Seafood, African, Restaurants, Bars, Music Venues",1,1,2,1,0,loud,1,2,1,0,2,1,no,full_bar,casual,1,0,1,0,0,0,0,0,0,1
248,6UI3dCIY6eM1eBOsnEVBuw,The Perq,2535 S Las Vegas Blvd,Las Vegas,NV,89109,36.1423694,-115.156034,3.5,104,1,"Bakeries, Restaurants, Nightlife, Dance Clubs, Ice Cream & Frozen Yogurt, Gelato, Sandwiches, Food, Coffee & Tea",0,0,2,2,0,average,1,2,0,0,1,0,free,beer_and_wine,casual,0,0,1,0,0,0,0,0,0,0
249,AVA3AwMEHfLY9anV3WgDXA,El Pollo Loco,7310 S Rainbow Blvd,Las Vegas,NV,89118,36.05561822,-115.242775,2.5,103,1,"Mexican, Restaurants, Chicken Wings, Fast Food",1,0,2,1,1,average,1,1,0,0,1,0,no,none,casual,1,0,1,0,0,1,0,0,0,0
250,dblGQtHAzNy1ACis1m2shw,New York Chinese Restaurant,"3545 S Fort Apache Rd, Ste 110",Las Vegas,NV,89147,36.125653,-115.298013,3.5,167,1,"Restaurants, Chinese",1,0,2,1,1,quiet,1,1,0,1,1,0,no,none,casual,1,1,1,1,0,0,0,0,0,0
251,qJEtXdrOQeo9py0Wqr6LKQ,Blaze Fast Fired Pizza,7160 N Durango Dr,Las Vegas,NV,89149,36.29119267,-115.2868289,4,186,1,"Fast Food, Pizza, Restaurants, Salad",1,0,2,1,0,average,1,1,1,1,2,0,no,none,casual,1,0,1,0,0,0,0,0,0,0
252,FMo1PJTUV5OpyiZlnTM1Rg,Sharky's Woodfired Mexican Grill,"8975 W Charleston Blvd, Ste 140",Las Vegas,NV,89117,36.157851,-115.290714,4,197,1,"Mexican, Restaurants",1,0,2,1,1,average,1,2,1,1,2,1,free,beer_and_wine,casual,1,0,1,0,0,1,0,0,0,0
253,qFZ7ReYNpjHuvSxOqXqHMg,Sumo Sushi 2,"8795 W Warm Springs Rd, Ste 106",Las Vegas,NV,89148,36.05520821,-115.2833057,3.5,416,1,"Sushi Bars, Restaurants",1,1,2,1,0,average,1,2,0,0,1,1,free,beer_and_wine,casual,1,0,1,0,0,0,0,0,0,0
254,YuiM5VKscO8rS1EX7f19_g,Fleur by Hubert Keller,3950 S Las Vegas Blvd,Las Vegas,NV,89119,36.09125341,-115.1768811,3.5,1080,1,"Tapas/Small Plates, American (New), Restaurants, French",0,1,1,1,0,average,1,3,0,0,1,0,no,full_bar,casual,1,0,1,0,1,0,0,0,0,1
255,Akl6WDSUwYQ3zanxczLNSg,Rice & Company,3900 Las Vegas Blvd S,Las Vegas,NV,89109,36.095927,-115.175779,3,425,1,"Chinese, Beer, Wine & Spirits, Food, Pan Asian, Restaurants, Asian Fusion, Nightlife, Bars",0,1,1,0,0,average,1,2,0,0,1,0,no,full_bar,casual,1,0,1,1,0,0,0,0,0,0
257,HgdFqAvK31fB9sgBdOzo9g,Crêpe Expectations,"9500 S Eastern Ave, Ste 180",Las Vegas,NV,89123,36.0164931,-115.1170689,4.5,1194,1,"Restaurants, Breakfast & Brunch, Cafes, Creperies",1,0,3,1,1,average,1,1,1,1,1,1,free,beer_and_wine,casual,1,0,1,0,0,0,0,0,0,0
258,Q7m8G4579-XYKV3LMW8V7g,Kaizen Fusion Roll and Sushi,"4480 S Paradise Rd, Ste 900",Las Vegas,NV,89109,36.108898,-115.151261,4.5,817,1,"Sushi Bars, Restaurants, Seafood, Asian Fusion, Japanese",1,1,2,1,0,average,1,2,0,1,2,1,no,full_bar,casual,1,0,1,0,0,0,0,0,1,0
259,aMZzd9RrRyhpuUJycefotA,Norm's Diner,"3945 S Durango Dr, Ste A1",Las Vegas,NV,89147,36.119189,-115.2797301,4,121,1,"Restaurants, American (New), Breakfast & Brunch, Diners",1,1,3,1,1,average,1,1,1,1,1,1,free,beer_and_wine,casual,1,0,1,0,0,0,0,0,0,1
260,uhQoPguihcZTo8yp5o2ohw,St. Tropez International Buffet,9090 Alta Dr,Las Vegas,NV,89145,36.1691517,-115.2913521,3,147,1,"Buffets, Restaurants",1,0,1,1,0,average,0,2,0,1,1,1,free,beer_and_wine,casual,1,0,1,0,0,0,0,0,0,0
261,yp2nRId4v-bDtrYl5A3F-g,Nittaya's Secret Kitchen,"2110 N Rampart, Ste 110",Las Vegas,NV,89128,36.1980338,-115.2825097,4.5,744,1,"Thai, Restaurants",0,1,1,1,1,average,1,2,1,1,1,0,no,beer_and_wine,casual,1,0,1,0,0,0,0,0,0,0
263,kXxSkjIByGp4X6-FIO8_Qw,The Diner at LVM Resort,8175 Arville St,Las Vegas,NV,89139,36.04089797,-115.1996833,4.5,148,1,"Breakfast & Brunch, Diners, Restaurants, American (Traditional)",1,0,3,1,0,quiet,1,1,0,1,1,1,no,none,casual,1,0,1,0,0,0,0,0,0,1
264,J7KlrDFrriWoRkIUVNRPbg,Tacos N' Ritas,"MGM Grand, 3799 Las Vegas Blvd",Las Vegas,NV,89109,36.10321104,-115.1683705,3.5,176,1,"Restaurants, Mexican",1,0,2,2,0,average,1,2,0,0,1,0,no,beer_and_wine,casual,1,0,1,0,0,1,0,0,0,0
265,0FHfkDxKSeDuyAEeaY6X-Q,Panera Bread,365 Hughes Center Dr,Las Vegas,NV,89169,36.11495998,-115.1555063,3.5,121,1,"Sandwiches, Salad, Restaurants, Soup",1,0,3,1,1,average,1,2,1,1,1,0,free,none,casual,1,1,1,0,0,0,0,0,0,0
266,aKEEQqL1UFMieilnylI1gw,Costa di Mare,3131 Las Vegas Blvd S,Las Vegas,NV,89109,36.12581862,-115.1671756,3.5,582,1,"Restaurants, Italian, Seafood",0,1,1,2,0,average,0,4,1,0,2,0,no,full_bar,dressy,1,0,1,0,0,0,1,0,0,0
267,BxRTF1hmGAzMzkTDsEp2gw,Panera Bread,7175 W Lake Mead Blvd,Las Vegas,NV,89128,36.195762,-115.248815,3.5,250,1,"Bagels, Bakeries, Salad, Food, Breakfast & Brunch, Soup, Sandwiches, Restaurants",1,0,2,1,1,average,1,1,1,1,1,0,free,none,casual,1,0,1,0,0,0,0,0,0,0
268,gTlDDzDEHyDQ6iwjNhpI6A,Mount Everest India's Cuisine,3641 W Sahara Ave,Las Vegas,NV,89102,36.1439911,-115.1898654,4.5,1421,1,"Event Planning & Services, Caterers, Indian, Restaurants",1,1,2,1,1,average,1,2,0,1,1,1,no,beer_and_wine,casual,1,0,1,0,0,0,0,1,0,0
269,bvGdqJ-SeGdIHX-HEabwlg,North Beach Italian Bistro,7770 W Ann Rd,Las Vegas,NV,89149,36.2636911,-115.2654135,4.5,234,0,"Breakfast & Brunch, Italian, Seafood, Restaurants",1,1,1,1,1,average,1,2,1,1,2,1,free,full_bar,casual,1,0,1,0,0,0,1,0,0,0
270,bjSC_jbrypke0l-bXXBmwQ,Vic & Anthony's Steakhouse,129 E Fremont St,Las Vegas,NV,89101,36.17023902,-115.1446098,4.5,692,1,"Restaurants, Steakhouses, Seafood, American (New), American (Traditional)",0,1,1,2,0,average,0,4,0,0,2,0,no,full_bar,dressy,1,0,1,0,0,0,0,0,0,1
271,Sovgwq-E-n6wLqNh3X_rXg,Lindo Michoacan,2655 E Desert Inn Rd,Las Vegas,NV,89121,36.1293982,-115.1134569,4,1203,1,"Restaurants, Mexican",1,1,2,1,1,average,1,2,0,1,1,1,no,full_bar,casual,1,0,1,0,0,1,0,0,0,0
272,5QNXZcclknB2PkfeN7FJWQ,The Hush Puppy,7185 W Charleston Blvd,Las Vegas,NV,89117,36.15852861,-115.2502906,4,381,1,"Southern, Seafood, Restaurants",1,1,1,1,1,average,1,2,0,1,1,0,no,beer_and_wine,casual,1,0,1,0,0,0,0,0,0,0
273,duw-3Aj7gAKbQG-isS5UtQ,Veranda,"Four Seasons Hotel, 3950 S Las Vegas Blvd",Las Vegas,NV,89109,36.090903,-115.174393,4,476,1,"Food, Nightlife, Italian, Restaurants, Breakfast & Brunch, Bars, Desserts, Coffee & Tea",1,1,2,1,0,quiet,0,3,1,0,1,1,paid,full_bar,casual,1,0,1,0,0,0,1,0,0,0
274,JyxHvtj-syke7m9rbza7mA,Sushi House Goyemon,"5255 S Decatur Blvd, Ste 118-119",Las Vegas,NV,89118,36.0944572,-115.2088673,3.5,1799,1,"Restaurants, Sushi Bars, Japanese",1,0,2,1,0,average,1,2,0,1,1,1,no,beer_and_wine,casual,1,0,1,0,0,0,0,0,1,0
275,6nbPXEjmBnDtsgM_YNwGjw,Island Flavor,"8846 S Eastern Ave, Ste 102",Las Vegas,NV,89123,36.02850482,-115.1177676,4.5,351,1,"Restaurants, Hawaiian",1,1,3,1,1,average,1,2,0,1,1,0,no,none,casual,1,0,1,0,0,0,0,0,0,0
276,3FlWR_osNPb8dcqLgHebHw,Mimi's Cafe,1121 S Fort Apache,Las Vegas,NV,89117,36.1577139,-115.2918614,3,266,1,"French, American (Traditional), Restaurants, Breakfast & Brunch",1,1,3,1,1,average,1,2,1,1,1,0,no,beer_and_wine,casual,1,0,1,0,1,0,0,0,0,1
277,jXyy2Vc-Dgp7QguQJSfnXw,Lazeez,"8560 W Desert Inn Rd, Ste D-3",Las Vegas,NV,89117,36.1300414,-115.2777854,4,305,1,"Halal, Indian, Restaurants, Mediterranean",1,0,2,2,1,quiet,1,2,1,1,1,1,free,none,casual,1,1,1,0,0,0,0,1,0,0
278,IQnUxhO7oieEP7-5ZVJ4uA,Siamese Bistro,"7835 S Rainbow Blvd, Ste 3",Las Vegas,NV,89139,36.04501902,-115.2441429,3.5,132,0,"Restaurants, Vegetarian, Thai, Chinese, Salad",1,1,3,1,1,quiet,1,2,0,1,2,1,free,full_bar,casual,1,1,1,1,0,0,0,0,0,0
279,iCQpiavjjPzJ5_3gPD5Ebg,Secret Pizza,"3708 Las Vegas Blvd S, Level 3, The Boulevard Tower",Las Vegas,NV,89109,36.109837,-115.174212,4,4286,1,"Pizza, Restaurants",1,0,3,1,0,average,1,1,0,0,1,1,no,beer_and_wine,casual,0,0,1,0,0,0,0,0,0,0
280,zpoZ6WyQUYff18-z4ZU1mA,The Goodwich Downtown,"900 S Las Vegas Blvd, Ste 120",Las Vegas,NV,89101,36.15993829,-115.1474527,4.5,633,1,"Breakfast & Brunch, Desserts, Sandwiches, Salad, Food, Street Vendors, Restaurants",1,0,1,1,1,average,1,1,1,1,2,1,free,beer_and_wine,casual,1,0,1,0,0,0,0,0,0,0
281,6Na0jTJjX5GQY_ZJ53G02A,Verrazano Pizza,"2381 E Windmill Ln, Ste 20",Las Vegas,NV,89123,36.0410492,-115.12081,3.5,111,0,"Restaurants, Pizza, Italian",1,0,2,1,1,average,1,1,0,1,1,1,no,none,casual,1,1,1,0,0,0,1,0,0,0
282,86wtLylJ9fbVuXRy5WU3Zw,Veganbites,"8876 S Eastern Ave, Ste 101",Las Vegas,NV,89123,36.0290481,-115.1149271,4.5,175,1,"Patisserie/Cake Shop, Food, Specialty Food, Vegetarian, Gluten-Free, Vegan, Cupcakes, Bakeries, Desserts, Restaurants, Custom Cakes",1,0,1,2,1,quiet,1,1,1,1,2,0,free,none,casual,1,1,1,0,0,0,0,0,0,0
283,DbEszO3wk1xVmN3pCPob2g,Jamms Restaurant,1029 S Rainbow Blvd,Las Vegas,NV,89145,36.159706,-115.245078,4.5,1064,1,"Restaurants, Breakfast & Brunch, American (New), American (Traditional)",1,0,3,1,0,average,1,2,0,1,1,0,no,none,casual,1,0,1,0,0,0,0,0,0,1
284,AnXovUgUHJap3QaDRnjL1w,Blueberry Hill Family Restaurant,3790 E Flamingo Rd,Las Vegas,NV,89121,36.1161975,-115.092388,4,379,1,"Restaurants, Diners, American (New), Breakfast & Brunch",1,0,2,1,0,average,1,2,0,1,1,0,no,none,casual,1,0,1,0,0,0,0,0,0,1
285,oH6QAuoTLFaX97oqqpLTMg,Familia Pizzeria,8090 S Durango Dr,Las Vegas,NV,89113,36.042461,-115.2782,4,349,1,"Italian, Desserts, Sandwiches, Food, Pizza, Restaurants",1,0,2,1,0,average,1,1,0,0,1,1,no,none,casual,1,1,1,0,0,0,1,0,0,0
286,8GOle3PqqZnni4U-vXBKQA,Good Pie,"725 S Las Vegas Blvd, Ste 140",Las Vegas,NV,89101,36.161205,-115.145457,4.5,146,1,"Gluten-Free, Restaurants, Pizza, Vegan",1,0,4,1,0,average,1,1,1,1,1,1,no,none,casual,1,1,1,0,0,0,0,0,0,0
288,T3ASfec34b8-uYr3xZj8Lw,P.F. Chang's,1095 S Rampart Blvd,Las Vegas,NV,89145,36.15942897,-115.2918989,3.5,364,1,"Asian Fusion, Restaurants, Gluten-Free, Chinese",1,1,2,1,1,average,1,2,1,1,1,1,no,full_bar,casual,1,0,1,1,0,0,0,0,0,0
289,COgwFthJpS4We16W5Gf4lw,Pamplemousse Le Restaurant,400 E Sahara Ave,Las Vegas,NV,89104,36.144096,-115.152417,4,228,1,"French, Seafood, Mediterranean, Restaurants",0,1,1,1,0,quiet,1,3,0,0,2,0,free,beer_and_wine,dressy,1,1,1,0,1,0,0,0,0,0
290,aNGcHb8rjFFI9nY_fUgImg,Kona Grill,3200 S Las Vegas Blvd,Las Vegas,NV,89109,36.12720677,-115.1688744,4,329,1,"Restaurants, American (New), Sushi Bars",1,1,3,1,0,average,1,2,1,0,3,1,free,full_bar,casual,1,1,1,0,0,0,0,0,0,1
291,ppobG2P-YmqTPy0s4MTRtA,The Smashed Pig Gastropub,509 Fremont St,Las Vegas,NV,89101,36.16881,-115.140343,4.5,422,1,"Nightlife, British, American (New), Bars, Gastropubs, Pubs, Restaurants",0,1,3,1,1,average,1,2,0,1,3,0,free,full_bar,casual,1,0,1,0,0,0,0,0,0,1
292,uDeycmwCy26ALJHeG3SsEA,Buffalo Wild Wings,"6640 N. Durango Dr, Ste 110",Las Vegas,NV,89149,36.28123174,-115.2861511,3,291,1,"American (Traditional), Nightlife, Chicken Wings, Bars, Restaurants, Sports Bars",1,0,3,1,1,loud,1,2,0,0,1,1,free,full_bar,casual,1,0,1,0,0,0,0,0,0,1
293,h_g5HV6Fw2rinZ3xqFwygw,Seasons Buffet,3333 Blue Diamond Rd,Las Vegas,NV,89139,36.041821,-115.18475,3.5,340,1,"Buffets, Restaurants",1,0,3,1,0,average,0,2,0,0,1,1,free,beer_and_wine,casual,1,0,1,0,0,0,0,0,0,0
294,B3omTXI--0eiBC7nCv_WXg,Farm Basket,6148 W Charleston Blvd,Las Vegas,NV,89146,36.1594218,-115.2250915,3.5,182,1,"Restaurants, Fast Food, American (New)",1,0,2,1,0,average,1,1,1,1,1,0,no,none,casual,0,0,1,0,0,0,0,0,0,1
295,dPxZI9lrKTl5dvFfnb1_Ig,Trattoria Italia,"9905 S Eastern Ave, Ste 140",Las Vegas,NV,89183,36.0100729,-115.1186456,4.5,329,1,"Italian, Seafood, Pizza, Restaurants",1,1,3,1,1,average,1,2,1,0,1,1,free,beer_and_wine,casual,1,1,1,0,0,0,1,0,0,0
296,Cy8XYYDrZ5wd3Bq-toXMsg,Hachi,3410 S Jones Blvd,Las Vegas,NV,89146,36.127713,-115.224648,4.5,274,1,"Tapas Bars, Restaurants, Izakaya, Sushi Bars, Tapas/Small Plates, Japanese",1,1,3,1,0,average,1,2,0,1,2,0,no,beer_and_wine,casual,1,0,1,0,0,0,0,0,1,0
297,dEAk-gE-5Q95a7p91gNn8A,Sushi Koma,"8665 W Flamingo Rd, Ste 126 & 127",Las Vegas,NV,89147,36.113892,-115.280322,4,1047,1,"Japanese, Sushi Bars, Restaurants",1,1,3,1,0,average,1,2,0,1,1,1,no,beer_and_wine,casual,1,0,1,0,0,0,0,0,1,0
298,ghDNHpqETRJGxG5iUtaZtw,Lobster ME,"Grand Canal Shoppes at The Venetian, 3377 South Las Vegas Blvd",Las Vegas,NV,89109,36.12181699,-115.168706,3.5,624,1,"Restaurants, Seafood",1,0,2,1,0,average,1,2,0,0,1,0,no,beer_and_wine,casual,1,0,1,0,0,0,0,0,0,0
300,UFthIIorkchiGj_5ThZ1Uw,Rainforest Cafe,3717 S Las Vegas Blvd,Las Vegas,NV,89109,36.10887415,-115.1719566,3,272,1,"Party & Event Planning, Restaurants, Cafes, Event Planning & Services, American (Traditional)",1,1,5,1,0,loud,1,2,1,0,2,0,no,full_bar,casual,1,0,1,0,0,0,0,0,0,1
301,_kb6GT4qawjwq47OsQ52xw,Paradise Garden Buffet,3555 Las Vegas Blvd S,Las Vegas,NV,89109,36.117064,-115.171177,2.5,520,1,"Food, Buffets, Restaurants",1,0,2,1,0,average,0,2,0,0,1,0,free,beer_and_wine,casual,1,0,1,0,0,0,0,0,0,0
302,s0vNtuLs1cwEqHTXKiS05w,Babystacks Cafe,"7090 N Durango Dr, Ste 140",Las Vegas,NV,89149,36.2897139,-115.286709,4,610,1,"Breakfast & Brunch, American (New), Cafes, Hawaiian, Restaurants",1,0,3,0,0,average,1,2,0,1,1,1,free,none,casual,1,0,1,0,0,0,0,0,0,1
303,32JWhoH-Kiu1wRFTvHvW9Q,Pie Me Over,"6070 S Rainbow Blvd, Ste 7",Las Vegas,NV,89118,36.078686,-115.241801,5,123,0,"Food, Restaurants, American (Traditional), Desserts, Bakeries, Do-It-Yourself Food",1,0,2,1,0,quiet,1,1,0,1,0,0,no,none,casual,0,0,1,0,0,0,0,0,0,1
304,NXT94mdw1KWadc3q0u0KYg,A.Y.C.E. Buffet,4321 W Flamingo Rd,Las Vegas,NV,89103,36.114239,-115.19508,4,456,1,"Buffets, Restaurants",1,0,5,1,0,average,0,2,0,1,1,0,free,beer_and_wine,casual,1,0,1,0,0,0,0,0,0,0
305,JhRxDdmZSGDG_u7cGxaYrw,California Pizza Kitchen at Summerlin,"10945 Oval Park Dr, Summerlin",Las Vegas,NV,89135,36.151547,-115.331923,3.5,235,1,"American (Traditional), Nightlife, Salad, Cocktail Bars, Pizza, American (New), Restaurants, Bars",1,1,4,1,1,average,1,2,1,1,1,1,free,full_bar,casual,1,0,1,0,0,0,0,0,0,1
306,MNaPOkqm2vKeNG8EqkZWCg,Chicago Joe's,820 S 4th St,Las Vegas,NV,89101,36.1609794,-115.1478447,3.5,415,1,"Italian, Seafood, Sandwiches, Restaurants",1,1,1,1,0,average,1,2,0,1,0,0,no,beer_and_wine,casual,1,0,1,0,0,0,1,0,0,0
307,UPIYuRaZvknINOd1w8kqRQ,Monta Ramen,"5030 Spring Mountain Rd, Ste 6",Las Vegas,NV,89146,36.1270336,-115.2098191,4,2604,1,"Noodles, Ramen, Restaurants, Japanese",1,0,2,1,0,average,1,1,0,0,1,0,no,beer_and_wine,casual,0,0,1,0,0,0,0,0,1,0
308,EyhI_N2JvQQgBypBJAT3tw,ReBAR,1225 S Main St,Las Vegas,NV,89104,36.1565071,-115.1535546,4.5,128,1,"Gastropubs, Dive Bars, Bars, Shopping, Wine Bars, Nightlife, Pubs, Restaurants, Antiques",0,0,2,2,1,average,1,1,1,1,2,1,free,full_bar,casual,1,0,1,0,0,0,0,0,0,0
309,oauECSQhZKNfQz12Gjdk7Q,Thai Spice,4433 W Flamingo Rd,Las Vegas,NV,89103,36.11482255,-115.2008005,4,170,1,"Ethnic Food, Thai, Specialty Food, Restaurants, Food",1,1,2,1,1,quiet,1,2,0,1,1,0,no,beer_and_wine,casual,1,1,1,0,0,0,0,0,0,0
310,1CWMNSTRMejdSyXBG2chNg,Fireside Restaurant & Tavern,1785 E Cactus Ave,Las Vegas,NV,89183,35.999495,-115.128018,3.5,139,1,"Gastropubs, Nightlife, Bars, Food, American (New), Restaurants",0,0,3,1,0,average,1,2,0,1,1,1,no,full_bar,casual,1,0,1,0,0,0,0,0,0,1
311,MgSd4P3ATkiywbbraFygHg,Plantone's Italian Market,8680 W Warm Springs Rd,Las Vegas,NV,89148,36.05572,-115.281181,4,338,1,"Pizza, Delis, Sandwiches, Italian, Restaurants",1,1,2,1,1,average,1,2,1,1,1,1,free,beer_and_wine,casual,1,1,1,0,0,0,1,0,0,0
312,BEtgRzNeXGAf0uQ-HuSyfA,Ohjah Noodle House,"7150 S Durango Dr, Ste 190",Las Vegas,NV,89113,36.05806453,-115.2783944,4.5,451,1,"Ramen, Restaurants, Japanese, Noodles",1,0,2,0,0,average,1,2,0,0,2,0,no,beer_and_wine,casual,1,0,1,0,0,0,0,0,1,0
314,AgMBY5tKMaFnFA2S6Vf22A,Capriotti's Sandwich Shop,"6965 S Rainbow Blvd, Ste 104",Las Vegas,NV,89118,36.06256,-115.243388,3.5,111,1,"Sandwiches, Restaurants",1,0,2,0,1,average,1,1,1,1,1,1,no,none,casual,1,0,1,0,0,0,0,0,0,0
315,n_K2xa_nqzUqaUJa0S_5tQ,Tea Station,"4355 Spring Mountain Rd, Ste 106",Las Vegas,NV,89102,36.125964,-115.1976,3,745,1,"Chinese, Restaurants, Taiwanese, Juice Bars & Smoothies, Coffee & Tea, Bubble Tea, Desserts, Food, Tea Rooms",1,0,2,1,0,average,1,1,1,0,1,0,free,none,casual,1,0,1,1,0,0,0,0,0,0
316,AbadN65irz8uSL8z6fkoBg,BBQ King,5650 Spring Mountain Rd,Las Vegas,NV,89146,36.1259475,-115.2189011,3,111,1,"Barbeque, Chinese, Cantonese, Restaurants, Food",1,0,2,1,1,average,1,1,0,1,1,1,no,none,casual,1,0,0,1,0,0,0,0,0,0
317,EHIUp6lUabQCtQ4SVZitQw,Oodolee Sushi & Grill,"4550 S Maryland Pkwy, Ste 9",Las Vegas,NV,89119,36.106605,-115.1364041,4,220,0,"Seafood, Restaurants, Japanese, Sushi Bars",1,1,2,1,0,average,1,2,0,1,1,1,free,beer_and_wine,casual,1,1,1,0,0,0,0,0,1,0
318,41Kbugm-qmIQTt7unkALYQ,Top of Binion's Steakhouse,128 Fremont St,Las Vegas,NV,89101,36.171235,-115.144061,4,328,1,"Steakhouses, Nightlife, Restaurants, Bars, Beer, Wine & Spirits, Wine Bars, Food, Seafood",0,1,1,2,1,quiet,1,3,0,1,0,0,no,full_bar,casual,1,0,1,0,0,0,0,0,0,0
319,gx2yPrOJSwF1ApJYdGBWIw,JINYA Ramen Bar,4860 W Flamingo Rd,Las Vegas,NV,89103,36.1157508,-115.2068476,4,1522,1,"Restaurants, Soup, Japanese, Ramen, Japanese Curry, Tapas/Small Plates",1,0,3,1,0,average,1,2,0,1,2,0,no,beer_and_wine,casual,1,0,1,0,0,0,0,0,1,0
321,Y6q0K1fJa0Hy1AK3y9BzIg,Suha Bites Sushiburrito & Hawaiian BBQ,"1780 N Buffalo Dr, Ste 106",Las Vegas,NV,89128,36.1915274,-115.2594518,4.5,108,1,"Hawaiian, Asian Fusion, Restaurants",1,0,2,1,1,quiet,1,1,1,0,2,0,no,none,casual,1,1,1,0,0,0,0,0,0,0
322,0YG_kM5caZhtwd6nbnei6A,The Charcoal Room,2411 W Sahara Ave,Las Vegas,NV,89102,36.14300552,-115.1743801,4,137,1,"Seafood, Steakhouses, Beer, Wine & Spirits, Restaurants, Food",0,1,1,2,1,average,1,3,0,0,1,1,no,full_bar,casual,1,0,1,0,0,0,0,0,0,0
323,PL3cimEUfNHlenOGSOAdJg,KUMI by Chef Akira Back,3950 Las Vegas Blvd S,Las Vegas,NV,89119,36.091919,-115.175187,3.5,418,1,"Japanese, Sushi Bars, Restaurants",0,1,1,2,0,average,1,3,0,0,1,1,free,full_bar,casual,1,0,1,0,0,0,0,0,1,0
324,cOJ1uIVIHCiefUyWG2wDfw,The Blind Pig,"4515 Dean Martin Dr, Ste 1",Las Vegas,NV,89103,36.10738887,-115.1815901,4,471,0,"Beer, Wine & Spirits, Restaurants, Gastropubs, Sports Bars, American (Traditional), Cocktail Bars, Bars, Food, Lounges, Cafes, Nightlife, Breakfast & Brunch, Bakeries",0,1,2,1,1,average,1,2,1,1,0,1,free,none,casual,1,1,1,0,0,0,0,0,0,1
325,lKH_cqeaeVpHdsO2dK58OA,Smashburger,"5655 Centennial Center Blvd, Ste 170",Las Vegas,NV,89149,36.2645451,-115.2574141,3,298,1,"Burgers, Restaurants",1,0,2,1,0,average,1,1,1,1,1,0,no,beer_and_wine,casual,1,0,1,0,0,0,0,0,0,0
326,YaTlfyPieOXwHH16wzieFg,Cafe Rio,4830 Blue Diamond Rd,Las Vegas,NV,89139,36.03343924,-115.2072241,2.5,394,1,"Mexican, Fast Food, Restaurants",1,0,2,1,1,average,1,1,1,1,1,0,no,none,casual,1,0,1,0,0,1,0,0,0,0
327,nVHrMUiXqt3bMAia27gRhA,La Cabaña,"2800 W Sahara Ave, Ste 5A",Las Vegas,NV,89102,36.1452494,-115.1795498,4.5,110,1,"Mexican, Restaurants",1,1,3,0,1,average,1,2,1,1,2,0,paid,full_bar,casual,1,1,1,0,0,1,0,0,0,0
328,Jy6ru0Hz-9Yc5v006-YmUQ,Fruits and Roots,"7885 W Sunset Rd, Ste 180",Las Vegas,NV,89113,36.069708,-115.262609,4.5,295,1,"Food, Organic Stores, Specialty Food, Restaurants, Gluten-Free, Juice Bars & Smoothies, Vegan",1,0,1,1,0,average,1,2,1,1,1,0,free,none,casual,1,0,1,0,0,0,0,0,0,0
329,LvNQkpggm72kJUTzO0juWQ,The Protein Source,"7060 S Durango Dr, Ste 115",Las Vegas,NV,89113,36.06003776,-115.2782348,4,169,1,"Restaurants, American (New), Breakfast & Brunch, Vegan",1,0,3,1,0,average,1,2,0,1,1,1,free,none,casual,1,1,1,0,0,0,0,0,0,1
330,KalAJyO0Zpg3K1wVwYXBHA,Marché Bacchus,"2620 Regatta Dr, Ste 106",Las Vegas,NV,89128,36.2075389,-115.2681541,3.5,726,1,"Food, Nightlife, Wine Bars, Specialty Food, French, Beer, Wine & Spirits, Restaurants, Bars",0,1,2,1,0,average,0,3,1,1,1,0,no,beer_and_wine,casual,1,0,1,0,1,0,0,0,0,0
331,V9klA6JGT6Fz2UpVP_7sBw,The Buffet at Monte Carlo,3770 Las Vegas Blvd S,Las Vegas,NV,89109,36.10478136,-115.1746627,2.5,455,0,"Buffets, American (Traditional), Restaurants",1,0,1,1,0,average,0,2,0,0,1,0,free,beer_and_wine,casual,1,0,1,0,0,0,0,0,0,1
333,7KkgMcbVaetryW1wwpzvvA,Cafe Rio,5765 Centennial Center Blvd,Las Vegas,NV,89149,36.26483,-115.257743,3,183,1,"Restaurants, Mexican",1,0,2,1,1,average,1,1,1,1,1,0,no,none,casual,1,0,1,0,0,1,0,0,0,0
334,xR7t4xCYRYEe1RjpYjBbkw,Tomo Sushi,2625 E Tropicana Ave,Las Vegas,NV,89121,36.09910591,-115.1143609,4.5,168,0,"Sushi Bars, Restaurants, Japanese",1,1,1,1,0,average,1,2,0,1,0,1,free,full_bar,casual,1,0,1,0,0,0,0,0,1,0
335,UidEFF1WpnU4duev4fjPlQ,Therapy,518 E Fremont St,Las Vegas,NV,89101,36.16906579,-115.1398415,4.5,1105,1,"American (Traditional), Tapas/Small Plates, Beer, Wine & Spirits, American (New), Nightlife, Bars, Restaurants, Gastropubs, Food, Burgers",0,1,2,1,0,average,1,2,0,1,2,1,free,full_bar,casual,1,0,1,0,0,0,0,0,0,1
336,3vxIqhm2jCVjkUWtmDvTsw,Raising Cane's,7550 S Las Vegas Blvd,Las Vegas,NV,89123,36.0524764,-115.1716161,4,535,1,"Chicken Shop, Fast Food, American (Traditional), Chicken Wings, Restaurants",1,0,2,1,1,average,1,1,0,1,1,1,no,none,casual,1,0,1,0,0,0,0,0,0,1
337,DVJkxZkLKS76Khb2y6XA6A,ProteinHouse,"9555 S Eastern Ave, Ste 125",Las Vegas,NV,89123,36.0161317,-115.1195258,4,443,1,"Restaurants, Specialty Food, Health Markets, Food, Salad, American (New), Burgers, American (Traditional), Juice Bars & Smoothies",1,0,4,1,0,average,1,2,1,1,2,1,free,none,casual,1,0,1,0,0,0,0,0,0,1
338,pik4ebdFa0UcUhnNkivFcg,Carmine's Italian Restaurant - Las Vegas,3500 S Las Vegas Blvd,Las Vegas,NV,89109,36.11932095,-115.1752004,4,868,1,"Caterers, Venues & Event Spaces, Event Planning & Services, Food, Salad, Restaurants, Seafood, Italian, Desserts",1,1,1,1,1,average,1,3,0,0,1,1,free,full_bar,casual,1,1,1,0,0,0,1,0,0,0
339,iIwMJdDuExGrOqkSAyPb9A,Samurai Sam's,"4175 S Grand Canyon Dr, Ste 103",Las Vegas,NV,89147,36.113711,-115.307527,3,106,1,"Restaurants, Japanese",1,0,2,0,1,average,1,1,0,1,1,0,no,none,casual,1,0,1,0,0,0,0,0,1,0
340,K7lWdNUhCbcnEvI0NhGewg,Wicked Spoon,3708 Las Vegas Blvd S,Las Vegas,NV,89109,36.10955,-115.176155,3.5,6708,1,"Buffets, Breakfast & Brunch, Restaurants",1,0,3,1,0,average,0,3,0,0,1,0,no,full_bar,casual,1,0,1,0,0,0,0,0,0,0
341,kRgAf6j2y1eR0wOFdzFAuw,Firefly,3824 Paradise Rd,Las Vegas,NV,89169,36.1201403,-115.1543617,4.5,1809,1,"Spanish, Restaurants, Tapas/Small Plates, Tapas Bars",0,1,2,1,1,average,1,2,1,1,2,1,free,full_bar,casual,1,0,1,0,0,0,0,0,0,0
343,e3PBfbtXUjMziX6XGsOMoA,Cafe Sanuki,"4821 Spring Mountain Rd, Ste G",Las Vegas,NV,89102,36.124884,-115.207619,4.5,654,1,"Cafes, Restaurants, Japanese, Soup, Noodles",1,0,3,1,0,average,1,1,0,0,2,0,free,none,casual,1,0,1,0,0,0,0,0,1,0
344,PJPO9AYkt__t4kSWdSWnfw,MTO Café,"10970 Rosemary Park Dr, Ste 100",Las Vegas,NV,89135,36.15093307,-115.332768,3.5,344,1,"Restaurants, Diners, American (New), Breakfast & Brunch",1,0,3,4,1,average,1,2,1,1,2,1,free,none,casual,1,0,1,0,0,0,0,0,0,1
345,hRZadfm7OEOzk0qjuk8BXg,Cantina Laredo,"430 S Rampart Blvd, Ste 110",Las Vegas,NV,89145,36.1667009,-115.2870029,3.5,385,0,"Specialty Food, Food, Restaurants, Mexican, Cocktail Bars, Nightlife, Bars",1,1,3,2,1,average,1,2,1,1,1,1,free,full_bar,casual,1,0,1,0,0,1,0,0,0,0
346,ItqPtxnayraXSlBS0EMOgg,MTO Café,500 S Main St,Las Vegas,NV,89101,36.1669213,-115.1498378,4.5,1013,1,"Cafes, Breakfast & Brunch, Comfort Food, Restaurants, Food",1,1,3,2,1,average,1,2,1,1,3,1,free,beer_and_wine,casual,1,1,1,0,0,0,0,0,0,0
347,DnalbBqgX7afqSYgO5R8iQ,California Pizza Kitchen,"3400 Las Vegas Blvd S, Ste. 1590",Las Vegas,NV,89109,36.12018261,-115.17473,3,240,1,"American (New), Pizza, Restaurants",1,0,2,1,0,average,1,2,0,0,1,1,free,full_bar,casual,1,0,1,0,0,0,0,0,0,1
348,OPSNdO3LNPMt7qz1MNb42g,Urban Turban,"3900 Paradise Rd, Ste G",Las Vegas,NV,89169,36.11890936,-115.154332,4,681,0,"Bars, Halal, Vegetarian, Cocktail Bars, Indian, Restaurants, Nightlife, Tapas Bars, Buffets, Vegan, Food, Desserts",1,1,2,1,1,average,1,2,0,1,2,1,free,full_bar,casual,1,1,1,0,0,0,0,1,0,0
349,bPcqucuuClxYrIM8xWoArg,Due Forni,"3555 S Town Center Dr, Ste 105",Las Vegas,NV,89135,36.1248405,-115.3252217,4,466,0,"Nightlife, Bars, Italian, Pizza, Wine Bars, Restaurants",1,1,2,1,1,average,1,2,1,1,1,1,free,full_bar,casual,1,0,1,0,0,0,1,0,0,0
350,R7LyTeiOHLyTNkA8HssBRQ,Los Tacos,4001 W Sahara Ave,Las Vegas,NV,89102,36.1440859,-115.1943448,4,369,1,"Mexican, Restaurants",1,0,2,1,0,average,1,1,1,1,1,1,no,none,casual,1,0,1,0,0,1,0,0,0,0
351,G6BwYw_0_atLPTzI1uokIA,Nacho Daddy,9560 W Sahara Ave,Las Vegas,NV,89117,36.1447628,-115.3027475,4,800,1,"Restaurants, Burgers, Vegan, Pubs, Tex-Mex, Breakfast & Brunch, Nightlife, American (New), Sports Bars, Mexican, Bars",1,1,3,1,1,average,1,2,1,1,2,1,free,full_bar,casual,1,0,1,0,0,1,0,0,0,1
353,oUX2bYbqjqST-urKbOHG6w,Loftti Cafe,"7729 S Rainbow Blvd, Ste 9B",Las Vegas,NV,89139,36.04816536,-115.2442547,4.5,239,1,"Desserts, Shaved Ice, Juice Bars & Smoothies, Bubble Tea, Restaurants, Shaved Snow, Themed Cafes, Sandwiches, Food, Coffee & Tea, Cafes",1,0,1,0,1,quiet,1,1,1,0,3,0,free,none,casual,1,0,1,0,0,0,0,0,0,0
354,jfmyj519pg2flxGEQ2xdPg,Joyful House Chinese Cuisine,4601 Spring Mountain Rd,Las Vegas,NV,89102,36.12595532,-115.2034313,3.5,486,1,"Chinese, Seafood, Restaurants, Cantonese",1,1,2,1,1,average,1,2,0,1,1,1,no,beer_and_wine,casual,1,0,1,1,0,0,0,0,0,0
356,mlOFd0pHDcav5hcnbKJiXQ,Kuben,"5025 S Fort Apache Rd, Ste 105",Las Vegas,NV,89148,36.0979515,-115.2977879,4.5,106,1,"Breakfast & Brunch, Restaurants, Asian Fusion, Japanese",1,0,3,1,0,average,1,2,0,0,1,0,no,none,casual,1,0,1,0,0,0,0,0,1,0
357,xvfAxe6F0azYjfLSm8ISMA,Don Vito's Italian,9777 S Las Vegas Blvd,Las Vegas,NV,89183,36.011877,-115.175816,3.5,164,1,"Italian, Restaurants",0,1,1,1,0,average,0,2,0,0,1,0,no,full_bar,casual,1,0,1,0,0,0,1,0,0,0
358,W7DwXa_7LNmETFHSQJZ2Lg,Sushi Mon,"8320 W Sahara Ave, Ste 180",Las Vegas,NV,89117,36.14466602,-115.272706,3.5,318,1,"Japanese, Restaurants, Sushi Bars",1,0,2,1,0,average,1,2,0,1,1,1,no,beer_and_wine,casual,1,0,1,0,0,0,0,0,1,0
359,YavRvjbLsvh4DYDJPAfJIA,Pho Saigon 8,9055 S Eastern Ave,Las Vegas,NV,89123,36.0253639,-115.1190162,3.5,480,1,"Seafood, Restaurants, Noodles, Vietnamese",1,1,2,1,0,average,1,1,0,1,1,0,no,beer_and_wine,casual,1,0,1,0,0,0,0,0,0,0
360,hkeHIe-JaUK5S5dUHgrBbA,Sicili's Pizza,529 E Twain Ave,Las Vegas,NV,89169,36.1207999,-115.1513955,4,178,1,"Restaurants, Pizza",1,0,2,2,0,quiet,1,1,0,0,0,1,free,none,casual,0,1,1,0,0,0,0,0,0,0
361,KQoeETpQ1nBEQ6fVOtFgWQ,Hamptons,"440 S Rampart Blvd, Ste 180",Las Vegas,NV,89145,36.166724,-115.286473,4,186,1,"Restaurants, American (New)",0,1,3,2,0,average,1,2,1,1,4,1,free,full_bar,casual,1,0,1,0,0,0,0,0,0,1
362,bFaFb7wu7swOp5qD8lNMog,Mian Sichuan Noodles,"4355 Spring Mountain Rd, Ste 107",Las Vegas,NV,89102,36.1258775,-115.197855,4.5,355,1,"Restaurants, Chinese, Szechuan, Noodles",1,1,2,0,0,average,1,2,0,0,1,0,no,none,casual,1,0,1,1,0,0,0,0,0,0
363,iFCz-xI7CV98fcaB4Chh3g,The Black Sheep,8680 W Warm Springs Rd,Las Vegas,NV,89148,36.0560801,-115.2808739,4.5,344,1,"Nightlife, Wine Bars, Restaurants, Cocktail Bars, American (New), Bars",0,1,1,1,0,average,1,2,0,1,5,0,no,full_bar,casual,1,0,1,0,0,0,0,0,0,1
364,O3OH5IEFMPtz7mPKakPZ3Q,Japaneiro,"7315 W Warm Springs Rd, Ste 170",Las Vegas,NV,89113,36.055035,-115.250942,4.5,420,1,"Asian Fusion, Seafood, Restaurants, French, Japanese, Tapas Bars",1,1,3,1,1,average,1,2,1,1,2,1,free,beer_and_wine,casual,1,1,1,0,1,0,0,0,1,0
365,BKg8YIGX_5YyUczmBAyyCQ,China Passion,2775 S Nellis Blvd,Las Vegas,NV,89121,36.1391176,-115.0669695,4.5,124,1,"Food Delivery Services, Food, Soup, Chinese, Restaurants",1,0,2,1,1,quiet,1,1,0,1,1,1,no,none,casual,1,1,1,1,0,0,0,0,0,0
366,aHFkZDm8g27zpzydNE8OMg,Sinful Subs,"5135 S Fort Apache Rd, Ste 145",Las Vegas,NV,89148,36.09507939,-115.2981827,4.5,236,1,"Restaurants, Sandwiches, Salad",1,0,1,1,1,average,1,1,0,1,1,1,free,none,casual,1,1,1,0,0,0,0,0,0,0
367,80Lkm305ZOkQdMEIvOy_lw,TAP Sports Bar,3799 Las Vegas Blvd S,Las Vegas,NV,89109,36.10131104,-115.1713755,3.5,418,1,"Nightlife, Restaurants, Bars, Sports Bars, American (Traditional)",0,1,2,1,0,average,1,2,0,0,1,1,free,full_bar,casual,1,0,1,0,0,0,0,0,0,1
368,Rv0UdhYw_UVIv4D2lc-qgg,TangTangTang,"6000 Spring Mountain Rd, Ste 1B",Las Vegas,NV,89146,36.1261368,-115.2235111,4.5,263,1,"Korean, Restaurants, Soup",1,1,3,1,0,average,1,2,0,1,1,0,no,beer_and_wine,casual,1,0,1,0,0,0,0,0,0,0
369,b-RSw4G3HJvGfwvRLzuLPw,SUGARCANE Raw Bar Grill,3355 Las Vegas Blvd S,Las Vegas,NV,89109,36.121179,-115.169653,4,386,1,"Nightlife, Bars, Coffee & Tea, Tapas/Small Plates, Wine Bars, American (Traditional), Cocktail Bars, American (New), Tapas Bars, Desserts, Food, Restaurants",0,1,4,1,1,average,1,3,0,0,3,1,free,full_bar,casual,1,0,1,0,0,0,0,0,0,1
370,8K3CRM4COa0SSBEvli0fJQ,Paymons Mediterranean Cafe & Hookah Lounge,8380 W Sahara Ave,Las Vegas,NV,89117,36.1448066,-115.2739885,3.5,522,1,"Bars, Middle Eastern, Grocery, Vegetarian, Greek, Nightlife, Mediterranean, Restaurants, Food, Hookah Bars",1,1,1,1,1,average,1,2,1,1,1,1,free,full_bar,casual,1,0,1,0,0,0,0,0,0,0
372,ym5FOqL6tGbgynzwKMHZuw,Crab Corner,6485 S Rainbow Blvd,Las Vegas,NV,89118,36.07088186,-115.2432709,3.5,575,1,"Nightlife, Bars, Restaurants, Sports Bars, Seafood",1,1,2,1,1,average,1,2,1,1,1,1,free,full_bar,casual,1,1,1,0,0,0,0,0,0,0
373,a3jFGgoWbPkPGENEafiXwg,Binion's Cafe,128 Fremont St,Las Vegas,NV,89101,36.1716327,-115.1442634,3,215,1,"Arts & Entertainment, Casinos, Restaurants, Cafes, Diners, Chinese, Steakhouses, Food",1,0,4,1,0,average,1,1,0,0,1,0,no,beer_and_wine,casual,1,0,1,1,0,0,0,0,0,0
374,zEaGcSVPDQipnRdEZp-F6g,Dom DeMarco's Pizzeria & Bar,9785 W Charleston Blvd,Las Vegas,NV,89117,36.15782246,-115.3112019,4,624,1,"Bars, Pizza, Restaurants, Wine Bars, Food, Italian, Nightlife",1,1,2,1,1,average,1,2,1,1,1,1,free,full_bar,casual,1,1,1,0,0,0,1,0,0,0
376,bK_eTLw_uEuEyMzdZlKN6A,Sensi,"Bellagio Las Vegas, 3600 S Las Vegas Blvd",Las Vegas,NV,89109,36.11199,-115.177001,4,384,0,"Nightlife, Bars, Asian Fusion, Restaurants",1,1,1,2,0,average,0,3,0,0,1,0,free,full_bar,dressy,1,0,1,0,0,0,0,0,0,0
377,G4hjhtA_wQ-tSOGpgGlDjw,Bajamar Seafood & Tacos,1615 S Las Vegas Blvd,Las Vegas,NV,89104,36.1517421,-115.1518119,5,282,1,"Dive Bars, Restaurants, Bars, Tacos, Fast Food, Nightlife, Mexican, Seafood",1,0,2,1,0,quiet,1,1,0,0,1,1,free,beer_and_wine,casual,1,0,1,0,0,1,0,0,0,0
378,slx9qstc2U2Tc4s7dzbbBg,Basil 'n Lime,"3665 Ft Apache Rd, Ste 100",Las Vegas,NV,89147,36.1230938,-115.2980657,3.5,212,1,"Thai, Restaurants",1,1,2,1,1,quiet,1,2,0,0,1,0,no,none,casual,1,1,1,0,0,0,0,0,0,0
381,EVlKBiHSr2ZUk9GsWwW_Yw,Once,3327 S Las Vegas Blvd,Las Vegas,NV,89109,36.1249493,-115.1679913,4.5,112,1,"Japanese, Restaurants, Latin American, Asian Fusion, Peruvian",1,1,4,1,0,average,1,3,0,1,7,1,no,full_bar,casual,1,0,1,0,0,0,0,0,1,1
382,IJGrBQyYpCBkbZx65H5J5g,Rubio's,"2390 E Serene, Ste 700-6",Las Vegas,NV,89123,36.02075794,-115.1191669,4,118,1,"Restaurants, Salad, Mexican, Caterers, Event Planning & Services, Seafood, Fast Food",1,0,2,0,1,average,1,1,1,1,1,0,no,none,casual,1,0,1,0,0,1,0,0,0,0
383,ZXfMiPsPv-cH7GMQ-5-mhA,Montana Meat Company,6371 Centennial Center Blvd,Las Vegas,NV,89149,36.2738996,-115.2692654,3.5,214,1,"Seafood, American (Traditional), Restaurants, Steakhouses",1,0,1,1,0,average,1,2,0,1,1,1,free,full_bar,casual,1,0,1,0,0,0,0,0,0,1
384,#NAME?,Chipotle Mexican Grill,4530 S Maryland Pkwy,Las Vegas,NV,89119,36.10707963,-115.1370645,3.5,136,1,"Mexican, Fast Food, Restaurants",1,0,2,1,1,average,1,1,1,1,1,0,no,beer_and_wine,casual,1,0,1,0,0,1,0,0,0,0
385,Tefx_N6A6nrsdj4jHHnbYg,Le Petit Café & Bakery,"6496 Medical Center St, Ste 100",Las Vegas,NV,89148,36.0707892,-115.291954,4.5,211,1,"Themed Cafes, Cafes, Bakeries, Food, French, Restaurants",1,0,3,1,1,average,1,1,1,1,3,0,free,none,casual,1,0,1,0,1,0,0,0,0,0
386,yVanb8fVmGtQFEYw05lZUQ,Pepe's Tacos 3,4814 Boulder Hwy,Las Vegas,NV,89121,36.116355,-115.069377,3.5,114,1,"Restaurants, Mexican",1,0,4,1,0,average,1,1,0,1,1,0,no,none,casual,1,0,1,0,0,1,0,0,0,0
388,ARohEoxqg8TzA5gQfdGAZw,Benihana,"3200 Las Vegas Blvd, Ste 1250",Las Vegas,NV,89109,36.12690347,-115.1689548,3.5,314,1,"Teppanyaki, Sushi Bars, Japanese, Restaurants",1,1,2,1,0,loud,1,3,1,0,3,1,free,full_bar,casual,1,0,1,0,0,0,0,0,1,0
389,ksuxxeP_V73Y4iKPeLq77A,La Salsa Cantina Mexican Fare,"3663 Las Vegas Blvd S, Ste 380",Las Vegas,NV,89109,36.110707,-115.168772,3,384,1,"Bars, Restaurants, Nightlife, Dance Clubs, Event Planning & Services, Mexican, Venues & Event Spaces",1,0,3,1,0,average,1,2,0,0,1,1,no,full_bar,casual,1,0,1,0,0,1,0,0,0,0
390,BqXuk5peVO-lIovXCv9CyQ,Veggy Street,5135 S Fort Apache Rd,Las Vegas,NV,89148,36.0949946,-115.2982015,4.5,214,1,"Gluten-Free, Sandwiches, Vegetarian, Fast Food, Vegan, Restaurants",1,0,4,0,1,quiet,1,2,1,1,3,0,free,none,casual,1,1,1,0,0,0,0,0,0,0
391,065c76tt1dXBNmoGBymUgQ,Cheffini's Hot Dogs,"707 Fremont St, Ste 1050",Las Vegas,NV,89101,36.16779872,-115.1382032,4,214,1,"Hot Dogs, Beer, Wine & Spirits, Restaurants, Coffee & Tea, Food",1,0,3,1,0,average,1,1,1,1,3,0,free,beer_and_wine,casual,1,1,1,0,0,0,0,0,0,0
392,PglC8rgguMIlT621p1BLdQ,Yum Cha,4945 W Tropicana Ave,Las Vegas,NV,89103,36.09970189,-115.2084732,4,948,1,"Restaurants, Cantonese, Hot Pot, Chinese, Dim Sum",1,1,3,1,1,average,1,2,0,1,1,1,no,none,casual,1,1,1,1,0,0,0,0,0,0
393,RNi6tW22UMgHwWLAb0mYdA,Lawry's The Prime Rib,4043 Howard Hughes Pkwy,Las Vegas,NV,89169,36.1151617,-115.1597903,4,1016,1,"American (Traditional), Event Planning & Services, Steakhouses, Venues & Event Spaces, Restaurants",0,1,1,2,1,average,1,3,0,1,1,0,no,full_bar,dressy,1,1,1,0,0,0,0,0,0,1
394,JIfSollg32ifUzTw2K4PDQ,Taqueria El Buen Pastor,530 N Las Vegas Blvd,Las Vegas,NV,89101,36.1745608,-115.1370274,4.5,176,1,"Street Vendors, Mexican, Food, Food Trucks, Restaurants",1,0,3,0,0,average,1,1,0,1,0,0,no,none,casual,1,0,1,0,0,1,0,0,0,0
395,Bhj4G0ArZqRvz9DprbNX3A,Layla Grill & Hookah,"8665 W Flamingo Rd, Ste 107",Las Vegas,NV,89147,36.1138469,-115.281062,4.5,385,1,"Hookah Bars, Mediterranean, Lounges, Ethnic Food, Bars, Restaurants, Nightlife, Specialty Food, Food",0,1,1,3,1,average,1,2,1,1,1,1,free,full_bar,casual,1,1,1,0,0,0,0,0,0,0
396,L1-1P3acJc4gEFvWwjXcNQ,Meráki Greek Grill,"4950 S Rainbow Blvd, Ste 160",Las Vegas,NV,89118,36.0985778,-115.2424401,4.5,553,1,"Greek, Restaurants, Mediterranean",1,0,3,0,1,average,1,2,0,1,1,1,free,beer_and_wine,casual,1,0,1,0,0,0,0,0,0,0
397,zQmHSe6IOiSNF84m9BVZ8A,The Still,3400 S Las Vegas Blvd,Las Vegas,NV,89109,36.12140835,-115.1749699,3.5,257,1,"Restaurants, Sports Bars, Nightlife, American (Traditional), Bars, Diners",0,1,3,2,1,loud,1,2,0,1,2,1,free,full_bar,casual,1,0,1,0,0,0,0,0,0,1
398,j00iBr6uYnwgFs_J5y9f0w,Rocco's NY Pizza & Pasta,6870 S Rainbow Blvd,Las Vegas,NV,89118,36.0639767,-115.241463,3.5,261,1,"Italian, Specialty Food, Pasta Shops, Pizza, Restaurants, Food",1,1,2,0,1,average,1,2,0,1,1,1,free,none,casual,1,1,1,0,0,0,1,0,0,0
399,Dnn7JsdmvJ0_spWu9wo2kg,Great American Food,7790 S Jones Blvd,Las Vegas,NV,89139,36.047733,-115.224898,4,104,0,"American (Traditional), American (New), Restaurants",1,0,1,1,1,quiet,1,1,0,0,1,0,no,none,casual,1,0,1,0,0,0,0,0,0,1
400,0WoQQlMXVIDEgI0xNdENKA,Feast Buffet,11011 W Charleston Blvd,Las Vegas,NV,89135,36.1564007,-115.3335552,3.5,655,1,"Buffets, Restaurants",1,0,4,2,0,average,0,2,0,1,1,0,free,beer_and_wine,casual,1,0,1,0,0,0,0,0,0,0
401,UN_6ebslv5cxdDmZAX3ivQ,Luna Lounge,3057 Las Vegas Blvd,Las Vegas,NV,89109,36.13121914,-115.1639979,4,380,1,"Tapas Bars, Restaurants, Bars, Lounges, Hookah Bars, Nightlife",0,1,1,1,1,average,1,2,0,1,1,1,free,full_bar,casual,1,0,1,0,0,0,0,0,0,0
402,yHYjDPuRtLvhvMpOn5fXOQ,Naked Fish's Sushi & Grill,"3945 S Durango Dr, Ste A6",Las Vegas,NV,89147,36.119189,-115.2797301,4.5,576,1,"Restaurants, Japanese, Food, Sushi Bars, Desserts",1,1,2,1,0,average,1,2,0,1,1,1,no,beer_and_wine,casual,1,0,1,0,0,0,0,0,1,0
404,TeHB4-F_5Mwg1VE2Uzu0Ag,Buca di Beppo Italian Restaurant,3850 S Las Vegas Blvd,Las Vegas,NV,89109,36.0988702,-115.1759152,3.5,466,1,"Italian, Event Planning & Services, Pizza, Restaurants, Food, Caterers",1,1,3,0,1,average,1,2,0,0,1,0,no,full_bar,casual,1,0,1,0,0,0,1,0,0,0
405,I5RoKagQjGYCWgY4_fK_rQ,Russo's Pizza Kitchen,"4950 S Rainbow Blvd, Ste 120",Las Vegas,NV,89118,36.09892272,-115.2424022,4,183,0,"Restaurants, Italian, Pizza",1,0,2,0,1,average,1,2,0,1,1,1,free,beer_and_wine,casual,1,1,1,0,0,0,1,0,0,0
406,Z5eukYH32_nFljOTC2DJ0g,Grimaldi's Pizzeria,"9595 S Eastern Ave, Ste 100",Las Vegas,NV,89123,36.0154042,-115.1194933,4,712,1,"Pizza, Restaurants",1,1,2,1,1,average,1,2,1,1,1,1,no,full_bar,casual,1,0,1,0,0,0,0,0,0,0
407,A5Rkh7UymKm0_Rxm9K2PJw,Yard House,6593 Las Vegas Blvd S,Las Vegas,NV,89119,36.068655,-115.177945,4,1375,1,"Steakhouses, American (Traditional), Restaurants, Vegetarian, American (New), Beer Bar, Cocktail Bars, Seafood, Asian Fusion, Wine Bars, Sports Bars, Nightlife, Bars",1,0,3,1,0,loud,1,2,1,1,1,1,free,full_bar,casual,1,1,1,0,0,0,0,0,0,1
408,0ahghcpWQVkm4lEFwx-peA,Habib's Persian Cuisine,2575 S Decatur Blvd,Las Vegas,NV,89102,36.143133,-115.2085074,3.5,182,0,"Nightlife, Bars, Lounges, Persian/Iranian, Restaurants, Desserts, Food, Middle Eastern",1,1,2,1,1,quiet,1,2,0,1,0,1,free,full_bar,casual,1,0,1,0,0,0,0,0,0,0
409,aTbz9GdpAf2M5MeAHVNhWw,Noodle King,"6820 W Sahara Ave, Ste 7, The Springs Shopping Ctr",Las Vegas,NV,89146,36.1452575,-115.2410657,3.5,118,1,"Noodles, Shanghainese, Szechuan, Chinese, Restaurants",1,1,2,1,1,quiet,1,1,0,0,1,1,free,none,casual,1,1,1,1,0,0,0,0,0,0
410,0uR48n5SYcLE_DLcjONZPg,Jimmy John's,4800 S Maryland Pkwy,Las Vegas,NV,89119,36.10271399,-115.1361602,3.5,116,1,"Delis, Food, Fast Food, Food Delivery Services, Sandwiches, Restaurants",1,0,1,1,1,average,1,1,0,1,1,0,no,none,casual,1,1,1,0,0,0,0,0,0,0
411,nTc-Qj_-ABZrpM9YSpJ6jA,ChowKing,3890 S Maryland Pkwy,Las Vegas,NV,89119,36.1182191,-115.1357269,3,121,1,"Restaurants, Cantonese, Filipino, Fast Food, Asian Fusion, Chinese",1,0,4,1,1,average,1,1,0,1,1,0,no,none,casual,1,0,1,1,0,0,0,0,0,0
412,WkTjbYtLiZqK-jpce7Gtuw,Abyssinia Ethiopian Restaurant,"4780 W Tropicana Ave, Ste 108",Las Vegas,NV,89103,36.10175056,-115.2053383,3.5,103,1,"Ethiopian, Restaurants",1,0,2,1,1,quiet,1,2,0,1,1,1,no,full_bar,casual,1,0,1,0,0,0,0,0,0,0
413,QJR4qBUHegWEozSQrGmBPw,Olives,3600 S Las Vegas Blvd,Las Vegas,NV,89109,36.113933,-115.174139,4,1783,0,"American (New), Bars, Nightlife, Italian, Mediterranean, Restaurants",1,1,1,1,0,average,1,3,1,0,1,0,free,full_bar,dressy,1,0,1,0,0,0,1,0,0,1
414,gO_z_5FQVHLCiJjOsfE1fg,Via Brasil Steakhouse on South Fort Apache and Charleston,"1225 S Fort Apache Rd, Ste 100",Las Vegas,NV,89117,36.15689836,-115.2919117,4,679,1,"Diners, Desserts, Steakhouses, Food, Restaurants, Seafood, Buffets, Beer, Wine & Spirits, Brazilian, Portuguese",1,1,1,2,1,average,1,3,1,1,1,1,free,full_bar,casual,1,1,1,0,0,0,0,0,0,0
415,cJWbbvGmyhFiBpG_5hf5LA,Hofbräuhaus Las Vegas,4510 Paradise Rd,Las Vegas,NV,89169,36.10775703,-115.1516913,4,1566,1,"Food, Sports Bars, Nightlife, Beer, Wine & Spirits, Restaurants, German, Beer Garden, Beer Bar, Bars, Gluten-Free, Beer Gardens",1,1,2,2,0,very_loud,1,2,0,1,2,1,free,full_bar,casual,1,0,1,0,0,0,0,0,0,0
416,Y-S2LhHefBdnX8VP5Bh_JA,Citizens Kitchen and Bar,3950 Las Vegas Blvd S,Las Vegas,NV,89119,36.091726,-115.176646,3,1009,1,"American (New), Restaurants, Comfort Food, Steakhouses",1,0,3,2,0,average,1,2,0,0,1,1,free,full_bar,casual,1,0,1,0,0,0,0,0,0,1
417,IbiPt7jzF8Wsu82nHXaJPA,Saino Indian Nepali Kitchen,"4860 W Desert Inn Rd, Ste 09",Las Vegas,NV,89102,36.13169102,-115.2073292,4.5,106,0,"Pakistani, Indian, Buffets, Restaurants, Himalayan/Nepalese",1,1,1,1,0,quiet,1,2,0,1,1,1,free,none,casual,1,0,1,0,0,0,0,1,0,0
418,8Q6jl7OW8DZzwANggDspcw,Sugar Factory American Brasserie,"Paris Las Vegas Hotel, 3655 Las Vegas Blvd S",Las Vegas,NV,89109,36.11201526,-115.1725316,3,745,0,"Brasseries, Bars, Breakfast & Brunch, Food, Candy Stores, Specialty Food, American (New), Restaurants, Nightlife",1,1,1,2,0,average,1,2,1,0,1,0,free,full_bar,casual,1,0,1,0,0,0,0,0,0,1
420,DLw9rK8Qb6l7ESgxtR47qQ,Ohana Hawaiian BBQ,"4360 Blue Diamond Rd, Ste 107",Las Vegas,NV,89139,36.0387297,-115.1986027,4,273,1,"Hawaiian, Chinese, Barbeque, Restaurants, Cantonese",1,0,2,1,1,average,1,1,0,1,1,1,no,none,casual,1,0,1,1,0,0,0,0,0,0
421,OXBROmBWuDhRhd0BZ7zXJA,Honey Pig Korean BBQ,"9550 S Eastern Ave, Ste 100",Las Vegas,NV,89123,36.01501697,-115.117183,3.5,151,1,"Korean, Barbeque, Restaurants",1,1,2,1,1,average,1,2,0,1,2,1,no,beer_and_wine,casual,1,0,1,0,0,0,0,0,0,0
422,iAuOpYDfOTuzQ6OPpEiGwA,Memphis Championship Barbecue,2250 E Warm Springs Rd,Las Vegas,NV,89119,36.0577242,-115.1225863,3,401,1,"Venues & Event Spaces, Barbeque, Event Planning & Services, Restaurants, Nightlife, Sports Bars, Bars",1,1,2,1,1,average,1,2,0,1,1,1,no,full_bar,casual,1,0,1,0,0,0,0,0,0,0
423,CVRTly4ag_q5ua0R3iqrVw,Ku Noodle by José Andrés,"SLS Las Vegas, 2535 S Las Vegas Blvd",Las Vegas,NV,89109,36.1427564,-115.1578748,4,233,0,"Japanese, Chinese, Asian Fusion, Taiwanese, Restaurants, Ramen",1,1,1,2,1,average,1,2,0,0,1,1,free,full_bar,casual,1,0,1,1,0,0,0,0,1,0
424,5_MrPFw9E0cMJ1Q0DJFZOQ,Tilted Kilt Pub & Eatery,"3545 Las Vegas Blvd, Unit L-26",Las Vegas,NV,89109,36.11738432,-115.1703222,3,339,1,"American (Traditional), Nightlife, Pubs, Restaurants, Bars, Sports Bars",0,1,3,0,0,loud,1,2,0,1,1,1,free,full_bar,casual,1,1,1,0,0,0,0,0,0,1
425,VR8QvH2g-jEG5EfMzA_G9w,Nine Fine Irishmen,3790 Las Vegas Blvd S,Las Vegas,NV,89109,36.10198176,-115.1738419,4,1150,1,"Music Venues, Nightlife, Irish, Arts & Entertainment, Restaurants, Active Life, Bars, Pubs",0,1,1,1,0,average,0,2,1,0,1,1,no,full_bar,casual,1,0,1,0,0,0,0,0,0,0
426,lLMJsTchKYF1O0fpNWpCRA,Home Plate Grill & Bar,2460 W Warm Springs Rd,Las Vegas,NV,89119,36.0573465,-115.1755301,4,112,1,"Restaurants, American (Traditional), Pizza, Burgers",1,1,5,1,1,average,1,2,0,1,0,1,free,full_bar,casual,1,0,1,0,0,0,0,0,0,1
428,gBy6UXTpoSHhW6qd15XU0g,Lakes Lounge,2920 Lake East Dr,Las Vegas,NV,89117,36.1384195,-115.2842541,4,221,1,"American (Traditional), Restaurants",1,0,4,1,0,average,1,1,0,1,1,1,no,full_bar,casual,1,0,1,0,0,0,0,0,0,1
429,lG759ODx7tj6wbS7rYip1g,Galanga Thai Eatery,"8174 S Las Vegas Blvd, Ste 108",Las Vegas,NV,89123,36.041054,-115.170512,4,247,1,"Vegetarian, Restaurants, Thai",1,1,3,1,1,quiet,1,2,0,1,1,0,no,none,casual,1,1,1,0,0,0,0,0,0,0
430,IF9C_h3NONhXZ7bbyhtnxA,Osi's Kitchen,"4604 W Sahara Ave, Ste 6",Las Vegas,NV,89102,36.14496173,-115.204818,4.5,123,0,"Restaurants, Caterers, Event Planning & Services, Kosher, Mediterranean, Middle Eastern, Food",1,1,2,2,1,quiet,1,2,0,1,1,1,free,none,casual,1,1,1,0,0,0,0,0,0,0
431,hHe1mFDxxrtejXHfiysJJg,The Melting Pot-Las Vegas,8704 W Charleston Blvd,Las Vegas,NV,89117,36.15942767,-115.2852436,4,337,1,"Restaurants, Fondue",1,1,2,1,0,quiet,0,3,0,1,2,0,no,full_bar,casual,1,0,1,0,0,0,0,0,0,0
432,iiVeHbqOWMuKeUQz7ks71A,Golden China Chinese Cuisine,"3830 E Flamingo Rd, Ste E4",Las Vegas,NV,89121,36.1170214,-115.0904787,3,145,1,"Restaurants, Chinese",1,0,2,1,1,average,1,1,0,1,1,1,no,none,casual,1,1,1,1,0,0,0,0,0,0
433,41b2SLmjLcxTGLVRxASiDA,Country Club,3131 Las Vegas Blvd S,Las Vegas,NV,89109,36.12672,-115.163553,4,269,0,"Restaurants, Breakfast & Brunch, Seafood, American (Traditional), Golf, Steakhouses, Active Life",0,1,1,2,0,average,0,3,1,0,2,1,free,full_bar,dressy,1,0,1,0,0,0,0,0,0,1
434,u_8cVZyxh0J468zEZUjNDQ,Pin-Up Pizza,3667 Las Vegas Blvd S,Las Vegas,NV,89109,36.109496,-115.172363,3.5,642,1,"Restaurants, Pizza",1,0,3,1,0,average,1,1,1,0,2,0,no,beer_and_wine,casual,0,0,1,0,0,0,0,0,0,0
435,CVt6kBVBABSq-NA_FZfrVw,Shawarma Vegas,2521 S Fort Apache Rd,Las Vegas,NV,89117,36.1433424,-115.2981583,4,131,1,"Middle Eastern, Kosher, Restaurants",1,0,2,1,1,average,1,2,1,1,1,1,free,none,casual,1,1,1,0,0,0,0,0,0,0
436,A6lKCuTrDSJ_eFKyumZCJQ,WuHu Noodle,3333 Blue Diamond Rd,Las Vegas,NV,89139,36.0417267,-115.1839224,4,136,1,"Chinese, Asian Fusion, Noodles, Restaurants",1,0,2,1,0,average,1,2,0,1,1,0,free,none,casual,1,0,1,1,0,0,0,0,0,0
438,8fFTJBh0RB2EKG53ibiBKw,Zenaida's Cafe,"3430 E Tropicana Ave, Ste 32",Las Vegas,NV,89121,36.10174061,-115.100359,5,374,1,"Cafes, Breakfast & Brunch, Restaurants",1,0,3,1,1,quiet,1,2,1,1,1,1,no,none,casual,1,0,1,0,0,0,0,0,0,0
439,jCR-xC4NqoEajjmstqX8sA,Twin Creeks,3333 Blue Diamond Rd,Las Vegas,NV,89139,36.04191453,-115.1834365,4,311,1,"Steakhouses, Seafood, Restaurants, American (New)",0,1,1,1,0,average,1,3,0,0,1,0,no,full_bar,casual,1,0,1,0,0,0,0,0,0,1
